stop_id,stop_code,stop_name,stop_lat,stop_lon
12000321,PJ785,KOMPLEKS MUHIBBAH (BARAT),3.15800900,101.57040000
12000322,PJ786,SUNSURIA TECHNOLOGY CENTRE (UTARA),3.15681500,101.56720000
12000323,PJ787,SUNSURIA TECHNOLOGY CENTRE (BARAT),3.15335500,101.56660000
12000324,PJ788,SELANGOR SCIENCE PARK,3.15011200,101.56960000
12000327,PJ799,ST JOSEPH'S INSTITUTION,3.13949800,101.59500000
12000328,PJ800,SUNWAY SUTERA,3.13823800,101.59790000
12000332,PJ511,TROPICANA GOLF CLUB,3.12857700,101.59370000
12000333,PJ806,TROPICANA GRANDE,3.13180700,101.59460000
12000334,PJ807,CASA TROPICANA,3.13717600,101.59490000
12000335,PJ808,CITA DAMANSARA,3.14646800,101.59900000
12000337,KL2264,KOMERSIAL BURHANUDDIN (1),3.15222500,101.62070000
12000338,KL2265,KOMERSIAL BURHANUDDIN (2),3.15297600,101.62280000
12000339,KL2266,(M1) VILLA FLORA CONDO,3.15364000,101.62460000
12000340,KL2267,KIARA PARK CONDO,3.15427800,101.62650000
12000341,KL2332,KG SG PENCHALA (1),3.16174100,101.62550000
12000342,KL1447,KG SG PENCHALA (2),3.16009700,101.62420000
12000343,KL1445,KG SG PENCHALA (3),3.15995100,101.61850000
12000346,PJ796,THE STRAND TIMUR,3.15536000,101.59560000
12000347,PJ368,MRT SURIAN PINTU B,3.14994600,101.59309200
12000348,PJ83,SRK SEKSYEN 11,3.16021267,101.59463490
12000349,PJ662,(M1) D'VILLA AVENUE,3.16202500,101.59132000
12000350,PJ81,AEON BIG KD,3.15976500,101.59110300
12000351,PJ86,THE STRAND BARAT,3.15447200,101.59104700
12000352,PJ663,DATARAN SUNWAY BARAT,3.15220700,101.59085200
12000354,PJ815,DERET KEDAI PJU 7/7A,3.15829900,101.60463500
12000355,PJ816,KOMERSIAL PJU 7/16,3.15974600,101.60353400
12000358,PJ809,MRT MUTIARA DAMANSARA PINTU B,3.15568700,101.60818700
12000359,PJ530,1 UTAMA BUS TERMINAL,3.15121178,101.61298450
12000360,PJ721,1 UTAMA,3.15024249,101.61490300
12000364,PJ810,BUKIT LANJAN (SELATAN),3.16629500,101.61661000
12000365,PJ811,BUKIT LANJAN (UTARA),3.16869600,101.61723800
12000368,PJ533,IKEA (BARAT),3.15499700,101.61071000
12000369,PJ541,SMK BANDAR UTAMA BARAT,3.14342975,101.61466920
12000370,PJ542,SMK BANDAR UTAMA DAMANSARA 2,3.13926000,101.61023900
12000371,PJ781,PANGSAPURI PELANGI,3.13910900,101.61394100
12000372,PJ782,SK BANDAR UTAMA DAMANSARA 2,3.14144000,101.61520900
12000373,PJ783,SMK BANDAR UTAMA UTARA,3.14276800,101.61557300
12000375,SL552,STELLARS GROCER,3.21182300,101.57740500
12000377,SL554,HOSPITAL SG BULOH PINTU D (OPP),3.21773400,101.58139600
12000378,SL555,HOSPITAL SG BULOH PINTU B (OPP),3.22077500,101.58339500
12000379,SL556,KOLEJ SAINS BERSEKUTU KESIHATAN (OPP),3.22137200,101.58745000
12000380,SL557,UITM SG BULOH,3.21966000,101.59332700
12000382,SL559,(M1) UITM SG BULOH (OPP),3.21940500,101.59323800
12000383,SL560,KOLEJ SAINS BERSEKUTU KESIHATAN,3.22116400,101.58747300
12000384,SL561,HOSPITAL SG BULOH PINTU B,3.22068800,101.58376900
12000385,SL562,HOSPITAL SG BULOH PINTU D,3.21782000,101.58165300
12000388,SL565,SK SG BULOH (OPP),3.21488200,101.57757200
12000393,SL570,DATARAN VILLA PUTRA,3.22647100,101.56731500
12000394,SL571,PERINDUSTRIAN BRP 8,3.22936800,101.56527700
12000396,SA996,PERUMAHAN BRP 6,3.22624800,101.55704300
12000401,SA896,PUSAT KOMERSIAL TSB,3.20851000,101.57197700
12000402,SA897,SME AEROSPACE,3.20816300,101.57433100
12000403,SA639,DEPOT SIMPANAN PERTAHANAN,3.20839800,101.56630300
12000404,SA640,KUARTERS DEPOT SIMPANAN PERTAHANAN,3.20762900,101.56360400
12000406,SA606,KUARTERS ATM KEM PAYA JARAS (OPP),3.20327300,101.55925900
12000407,SA607,(M2) KUARTERS JKR UNIT TENTERA (OPP),3.20166200,101.55692300
12000408,SA608,BALAIRAYA KG PAYA JARAS (OPP),3.20027800,101.55332000
12000409,SA609,SIMPANG JLN RAHIDIN,3.20029700,101.54874000
12000410,SA1006,SRA PAYA JARAS,3.20047200,101.54555500
12000411,SA1007,PINGGIRAN SG. BULOH,3.19949000,101.54226100
12000412,SA1008,SIMPANG Y KUBU GAJAH,3.19955600,101.53881800
12000413,SA1009,RUMAH LOT 2876 (OPP),3.19796700,101.53633100
12000414,SA1010,TASKA PERMATA KEMAS,3.19577400,101.53133100
12000415,SA1011,KG KUBU GAJAH,3.19569300,101.52942200
12000416,SA1012,BALAIRAYA KG PAYA JARAS HILIR (OPP),3.19607700,101.53167600
12000417,SA1013,RUMAH LOT 2876,3.19801500,101.53610700
12000418,SA1014,(M3) SIMPANG FFM,3.20181300,101.54021000
12000419,SA1015,U19 TMN SRI BULOH,3.20336500,101.54275500
12000420,SA631,PERSIMPANGAN JLN KG KUBU GAJAH,3.20320900,101.54635600
12000421,SA632,KEM PAYA JARAS,3.20100600,101.54802200
12000422,SA633,BALAIRAYA KG PAYA JARAS,3.20045400,101.55317600
12000423,SA634,KUARTERS JKR UNIT TENTERA,3.20176200,101.55678200
12000424,SA635,KUARTERS ATM KEM PAYA JARAS,3.20289100,101.55847000
12000425,SA636,SMK BANDAR BARU SG BULOH,3.20653700,101.56222400
12000426,SA637,KUARTERS DEPOT SIMPANAN PERTAHANAN (OPP),3.20775800,101.56349400
12000434,SA1017,PREMISE 196,3.19811600,101.57253700
12000435,SA779,DERET KEDAI JLN PERKHIDMATAN,3.19749400,101.56978000
12000436,SA780,SJKC SG BULOH (OPP),3.19536400,101.56975100
12000437,SA781,IPD SG BULOH,3.19417100,101.56743500
12000449,PJ630,JEJANTAS LDP SS 21 UTARA,3.13517887,101.62450510
12000450,PJ208,KOMERSIAL SS 21/56B,3.13799801,101.62269680
12000451,PJ142,KOMERSIAL SS 21/1A,3.13541233,101.62100140
12000452,PJ726,(M1) JEJANTAS SPRINT SS 21 TIMUR,3.13238501,101.62160930
12000453,PJ723,JEJANTAS SPRINT SS 22 BARAT,3.13215182,101.62072170
12000457,PJ728,TROPICANA MALL,3.13115456,101.62844330
12000459,KL1457,KOMERSIAL TUN FUAD (2),3.14222318,101.62954420
12000467,KL1451,PERUMAHAN ABANG HJ OPENG,3.14225483,101.62989480
12000468,KL1456,KOMERSIAL WAN KADIR,3.13966237,101.62918650
12000474,PJ620,KG SERI DAMANSARA,3.13158109,101.63194850
12000479,PJ216,PASAR SEKSYEN 17,3.12005900,101.63216510
12000481,PJ219,(M1) HAPPY MANSION APARTMENT,3.12339254,101.63402500
12000482,PJ220,HAPPY APARTMENT GATE A,3.12470547,101.63456160
12000503,SA1022,PETRONAS SEKSYEN U3,3.15385100,101.54854900
12000518,PJ103,PANGSAPURI TANJUNG SEK 6,3.15537372,101.57565440
12000520,PJ106,KOMERSIAL SEK 6 (BARAT),3.15992973,101.57410570
12000521,PJ658,TAMAN INDUSTRI SG BULOH (UTARA),3.16193500,101.57061100
12000524,SA670,PANGSAPURI SUBANG PERDANA,3.15081348,101.54111220
12000526,SA675,KOMERSIAL SUBANG PERDANA (SELATAN),3.14875200,101.54812100
12000530,KL1141,PREMISE NO 83,3.13237000,101.67261100
12000532,KL2148,(M1) MID VALLEY SOUTH COURT,3.11634269,101.67610830
12000534,KL1160,BUKIT BANDARAYA,3.13924400,101.67217500
12000536,KL1137,KONDO SRI PENAGA,3.14220641,101.66458720
12000538,KL1917,MASJID SAIDINA UMAR (BARAT),3.14930848,101.65637910
12000539,KL1170,PLAZA DAMANSARA (BARAT),3.14881632,101.65334280
12000540,KL1919,TEKNOLOGI PENDIDIKAN (BARAT),3.14608055,101.64794530
12000541,KL1918,PUSAT SAINS NEGARA (BARAT),3.14702840,101.64506800
12000542,KL1807,SMK SERI HARTAMAS,3.15795860,101.64795770
12000543,KL1480,DESA SRI HARTAMAS (1),3.16054200,101.64957500
12000546,KL1904,(M1) PUSAT SAINS NEGARA (TIMUR),3.14744578,101.64513770
12000550,KL1177,UOA DAMANSARA,3.15151904,101.66671490
12000551,KL1178,(M2) WISMA DAMANSARA (TIMUR),3.15071501,101.66867640
12000552,KL1487,DUTA VISTA,3.15083588,101.67459890
12000557,KL1916,WISMA DAMANSARA (BARAT),3.15060104,101.66922800
12000562,KL1175,HP TOWER,3.15188200,101.66379000
12000563,KL1015,LEMBAGA PEPERIKSAAN,3.16880556,101.67090840
12000564,KL1016,PUBLIKA,3.17019400,101.66533800
12000572,PJ79,KOMERSIAL NURI 7A,3.17258143,101.57635793
12000606,SA1019,RHB KG BARU SG BULOH,3.19824630,101.56795310
12000623,SA605,SMK BANDAR BARU SG BULOH (OPP),3.20586000,101.56182100
12000634,SA1018,(M1) PANGSAPURI MEDAN MAS,3.19558140,101.56639000
12000636,KL1138,BSC (SELATAN),3.14306700,101.66796900
12000637,KL1148,SMK BUKIT BANDARAYA,3.14256400,101.67163100
12000638,KL1149,KONDO BANGSAR INDAH,3.14023900,101.67271900
12000639,KL1150,JUNC JLN LIMAU BESAR,3.13808300,101.67341100
12000640,KL2335,PETRON,3.12758600,101.67550300
12000641,KL1134,KOMERSIAL TELAWI (SELATAN),3.13229500,101.67251400
12000642,KL1135,KOMERSIAL TELAWI (UTARA),3.13408300,101.67247200
12000644,KL1136,BSC (UTARA),3.14238300,101.66796700
12000645,KL1162,DC MALL,3.14605600,101.66062800
12000646,PJ722,SMK DAMANSARA UTAMA,3.13743100,101.62445800
12000647,KL2337,DESA SRI HARTAMAS (2),3.16196231,101.64826090
12000648,KL2338,PLAZA CRYSTELVILLE,3.16307900,101.65139700
12000649,KL1485,PLAZA PRISMA VILLE,3.16117800,101.64965800
12000651,PJ819,POS DAMANSARA JAYA,3.12772200,101.61581900
12000652,KL1905,TEKNOLOGI PENDIDIKAN (TIMUR),3.14636434,101.64786700
12000653,PJ489,ATRIA,3.12663300,101.61748100
12000654,PJ510,KDU,3.12690600,101.62245300
12000655,KL1171,PLAZA DAMANSARA (TIMUR),3.15071243,101.65321760
12000656,KL1906,MASJID SAIDINA UMAR (TIMUR),3.14955470,101.65640090
12000657,PJ631,JEJANTAS LDP SS 20 SELATAN,3.13482000,101.62494400
12000658,KL1077,(M3) KL SENTRAL,3.13489200,101.68575600
12000659,KL2340,MRT SEMANTAN PINTU A,3.15083600,101.66518600
12000661,KL1071,TUGU NEGARA,3.14965300,101.68615600
12000662,KL1072,MENARA BANK RAKYAT (TIMUR),3.15077200,101.69143300
12000665,KL39,MENARA DBKL 2,3.15361780,101.69445710
12000667,KL1073,(M1) TAMAN TASIK PERDANA,3.14869400,101.68548900
12000668,PJ795,DATARAN SUNWAY TIMUR,3.15175300,101.59563300
12000669,PJ797,PANGSAPURI DEDAP BLOK 10,3.15817800,101.59509700
12000670,KL1174,(M1) MRT SEMANTAN PINTU B,3.15159200,101.66561100
12000671,PJ798,PANGSAPURI DEDAP BLOK 1,3.15784400,101.59135300
12000672,KL1021,MATRADE,3.17543900,101.66729700
12000673,KL1895,KOMPLEKS MAHKAMAH KUALA LUMPUR,3.17610600,101.67142200
12000674,KL1026,WISMA HASIL,3.17345300,101.67288600
12000675,KL1507,HIGH COMMISSION OF INDIA (OLD),3.15833074,101.67129380
12000676,PJ375,PERDANA SHOPPING CENTRE,3.16754000,101.60643100
12000677,PJ817,PERDANA EXCLUSIVE CONDO,3.16938300,101.60533600
12000678,PJ377,METROPOLITAN SQUARE,3.16605800,101.60797940
12000679,PJ380,NEO DAMANSARA,3.16418100,101.61165600
12000681,PJ381,(M1) TESCO MUTIARA DAMANSARA,3.16035800,101.61223600
12000682,PJ822,OASIS BANDAR UTAMA,3.15029800,101.61013800
12000684,PJ532,1 UTAMA - LDP,3.15043400,101.61652420
12000685,PJ789,D'SHIRE VILLA,3.15230700,101.58457700
12000686,PJ359,SMK SEK 4 KD,3.15220900,101.58193600
12000687,PJ362,(M1) APT SEMARAK BLOCK 3,3.15394000,101.57991100
12000689,PJ354,JEJANTAS APT SEROJA,3.15355500,101.57777000
12000690,PJ660,PERSIMPANGAN SEPAH PUTERI 5/2,3.15624700,101.58305300
12000691,PJ92,APT SIANTAN (TIMUR),3.15636800,101.58528600
12000692,PJ534,IKEA (TIMUR),3.15553050,101.61235370
12000693,PJ90,APT CARMILA (UTARA),3.15953400,101.58696600
12000694,PJ812,(M1) PJ TRADE CENTRE,3.16848800,101.61295200
12000695,PJ790,SEK RENDAH AGAMA SEKSYEN 5,3.16077200,101.58766300
12000696,PJ813,EMPIRE DAMANSARA,3.16601100,101.61177500
12000697,PJ665,MASJID KOTA DAMANSARA,3.16158400,101.58686400
12000698,PJ89,APT CARLINA (SELATAN),3.15822800,101.58719900
12000699,PJ91,APT SIANTAN (BARAT),3.15611200,101.58501300
12000700,PJ666,KOMERSIAL SEPAH PUTERI 5/1B,3.15610500,101.58315400
12000703,SL553,SMK SIERRAMAS (Opp),3.21447200,101.57856700
12000705,PJ350,BESTARI DE KOTA (SELATAN),3.16377200,101.57399500
12000706,PJ351,BESTARI DE KOTA (TIMUR),3.16502200,101.57558000
12000707,PJ74,PERUMAHAN JLN NURI,3.16739200,101.57714000
12000708,PJ78,PANGSAPURI KASIA,3.17015900,101.57534570
12000709,PJ801,KASTURI IDAMAN,3.17674700,101.57732200
12000710,PJ69,PANGSAPURI IXORA,3.17390000,101.57550400
12000712,SA998,PERUMAHAN 1A/6,3.21183300,101.56735600
12000714,PJ612,KWASA LAND (RRI) (BARAT),3.15531700,101.55935100
12000716,SA1002,PERUMAHAN 1C/4,3.21856100,101.56435300
12000718,SA1005,PASAR DAN BAZAR BBSB,3.21007800,101.56673100
12000719,SA743,SUBANG 2 (UTARA),3.15663900,101.54478000
12000720,SA744,KOMERSIAL APOLLO U5/189 (TIMUR),3.15729400,101.54663900
12000721,SA959,KOMERSIAL APOLLO U5/192 (UTARA),3.15960600,101.54790600
12000722,SA745,KOMERSIAL BULAN  U5/J (UTARA),3.16188600,101.54792800
12000723,SA736,KOMERSIAL BULAN U5/164 (UTARA),3.16302400,101.54932900
12000724,SA725,SUBANG IDAMAN (SELATAN),3.16546900,101.54889100
12000725,SA726,PANGSAPURI MENTARI,3.16662800,101.54131400
12000726,SA727,PANGSAPURI OPAL,3.16751700,101.54236400
12000727,SA728,SURAU AL RAUDHAH. TMN NUSA SUBANG,3.16751700,101.54620400
12000728,SA729,SUBANG IDAMAN (UTARA),3.16754090,101.54894870
12000729,SA1023,PERUMAHAN SUBANG BESTARI,3.16970500,101.55067300
12000730,SA677,PANGSAPURI SRI GALAXY (UTARA),3.17166650,101.55010970
12000736,SA638,BANDAR BARU SUNGAI BULOH,3.20880500,101.56586200
12000737,SA746,PANGSAPURI SRI GALAXY (SELATAN),3.17177500,101.55022600
12000740,SA958,KOMERSIAL APOLLO U5/192 (SELATAN),3.15954400,101.54808100
12000741,SA741,PDG APOLLO U5/189,3.15716670,101.54696760
12000742,KL1459,PERUMAHAN ZAABA,3.14380544,101.62229580
12000743,SA742,SUBANG 2 (SELATAN),3.15684800,101.54500900
12000744,SA1027,PUSAT KOMERSIAL STAR AVENUE,3.15397300,101.55207200
12000745,KL1450,MASJID AT-TAQWA,3.14539700,101.62917800
12000746,PJ613,KWASA LAND (RRI) (TIMUR),3.15688600,101.56143800
12000747,PJ792,KOMERSIAL SEK 6 (TIMUR),3.16103900,101.58152500
12000748,PJ793,SURAU AL-FALAH SEK 6,3.15764000,101.57704200
12000749,PJ104,PANGSAPURI CEMPAKA SEK 6,3.15671400,101.57431200
12000750,PJ823,MRT PHILEO DAMANSARA PINTU A,3.12841900,101.64274700
12000751,PJ709,DAMANSARA INTAN,3.13076700,101.62863100
12000752,PJ710,BOMBA SS2,3.12615800,101.62320000
12000753,SA650,PERUMAHAN SUBANG PERDANA (UTARA),3.15559600,101.53841700
12000756,SA672,KOMERSIAL SUBANG PERDANA (BARAT),3.14977700,101.54359620
12000757,PJ348,JEJANTAS SS2/24 (UTARA),3.11802500,101.62525000
12000759,PJ210,HOTEL LISA DE INN,3.11823100,101.63065000
12000760,PJ233,SHELL 17/22,3.12470300,101.63673600
12000761,PJ217,PADANG SRK SRI DAMAI,3.12118100,101.63383300
12000762,PJ349,KOMERSIAL SS19/8,3.11889830,101.62869400
12000765,PJ240,TIARA DAMANSARA (UTARA),3.12754200,101.63901500
12000766,PJ241,TIARA DAMANSARA (SELATAN),3.12497200,101.63845300
12000767,PJ236,UIA PJ (BARAT),3.12078300,101.63843100
12000768,PJ543,CENTRE POINT BANDAR UTAMA,3.13765300,101.60933900
12000769,PJ237,UIA PJ (SELATAN),3.11880300,101.63911100
12000770,PJ780,MASJID KAYU ARA,3.13544200,101.61241900
12000771,PJ245,SMK SULTAN ABD SAMAD (TIMUR),3.11862900,101.64512000
12000772,PJ247,MAHSA UNIVERSITY (TIMUR),3.11702200,101.64978260
12000773,KL1105,FAKULTI PERNIAGAAN DAN PERAKAUNAN,3.11839500,101.65426700
12000775,KL1108,PUSAT ASASI SAINS (DARI STN),3.12181800,101.65826470
12000776,KL2137,FAKULTI UNDANG-UNDANG,3.11861500,101.66102440
12000777,KL1103,KOLEJ KEDIAMAN PERTAMA,3.11812400,101.65932260
12000778,KL1104,FAKULTI KEJURUTERAAN (UTARA),3.11909700,101.65553720
12000779,PJ260,MAHSA UNIVERSITY (BARAT),3.11796200,101.64804900
12000780,PJ263,SMK SULTAN ABD SAMAD (BARAT),3.11827100,101.64507370
12000781,PJ239,PUSAT ASASI MAHALLAH AISYAH UIA,3.11961100,101.64320350
12000782,PJ619,EASTIN HOTEL,3.12830400,101.64286000
12000783,PJ539,1POWERHOUSE (OPP),3.14495500,101.61712800
12000784,PJ537,FIRST AVENUE,3.14776700,101.61463200
12000786,SA1021,KOMPLEKS SURAU DARUS SALIM,3.15364700,101.55300100
12000787,SA1024,KORMERSIAL SUBANG BESTARI,3.17791200,101.54847200
12000788,SA1026,HELP UNIVERSITY,3.17785300,101.54878700
12000789,SA738,KOMERSIAL BULAN U5/164 (SELATAN),3.16426300,101.54948700
12000790,SA740,KOMERSIAL BULAN U5/J (SELATAN),3.16126000,101.54810200
12000791,SA674,REST. NASI KANDAR,3.14102600,101.54666100
12000792,SA1028,GALERI PERABOT,3.13956300,101.54842900
12000793,SA902,(M1) MAS HQ,3.13082500,101.55597000
12000795,SA1029,WESTSTAR,3.13936500,101.54846500
12000796,SA604,REST. NASI KANDAR (OPP),3.14083800,101.54659200
12000797,KL1109,PERPUSTAKAAN UM,3.12112000,101.65358020
12000798,KL2342,INSTITUT PENGAJIAN SISWAZAH,3.12455500,101.66009400
12000799,KL2343,KOLEJ KEDIAMAN KELIMA,3.12670000,101.65974500
12000800,KL2344,PUSAT SUKAN UM,3.12938200,101.66016600
12000801,KL2345,KOLEJ KEDIAMAN KESEPULUH,3.12986700,101.65051600
12000802,KL2346,FAKULTI SAINS KOMPUTER,3.12769200,101.65026100
12000803,KL2347,FAKULTI PENGAJIAN MELAYU,3.12619100,101.65160100
12000804,KL2348,(M1) KOLEJ KEDIAMAN KEEMPAT,3.12438700,101.65154300
12000805,PJ824,TROPICANA AVENUE,3.13706900,101.59518200
12000806,PJ825,MENARA LIEN HOE,3.13069300,101.59471400
12000807,PJ826,DAMANSARA LAGENDA,3.12466500,101.59329800
12000808,PJ827,IDAMAN VILLAS,3.12113400,101.59208700
12000809,PJ828,TAIPAN 1 (OPP),3.11950900,101.59060900
12000810,PJ829,WINCHESTER,3.11804000,101.59106700
12000811,PJ671,LRT LEMBAH SUBANG,3.11210600,101.59066100
12000812,PJ672,PUSAT DAGANGAN NZX,3.11451700,101.59090100
12000813,PJ673,WHINCHESTER (OPP),3.11770900,101.59083500
12000815,PJ400,ARA PERMATA,3.11819600,101.58864000
12000816,PJ830,BALAI POLIS ARA DAMANSARA,3.11750200,101.58457400
12000817,PJ831,(M1) DATARAN ARA DAMANSARA,3.12026100,101.57997500
12000818,PJ19,ARA VISTA,3.12219500,101.58184100
12000819,PJ832,ARA PUTRA (OPP),3.12349400,101.58463400
12000820,PJ20,MAISSON CONDO,3.12173200,101.58883300
12000821,PJ833,TAIPAN 1,3.11981600,101.59060200
12000822,PJ834,DAMANSARA IDAMAN,3.12202300,101.59238000
12000823,PJ835,DAMANSARA LAGENDA (OPP),3.12466400,101.59304900
12000825,PJ784,PRIMA DAMANSARA,3.19823100,101.59915800
12000826,PJ49,APT LESTARI,3.19661100,101.59413200
12000827,PJ52,APT IDAMAN,3.19065900,101.59236600
12000828,PJ53,APT IMPIAN,3.19197500,101.58851900
12000829,PJ54,APT PERMAI,3.19424200,101.58822800
12000830,PJ62,APT LESTARI (OPP),3.19720000,101.59398600
12000833,PJ347,PUSAT PERNIAGAAN SS2 (SELATAN),3.11727820,101.62097770
12000834,PJ803,KUARTERS GURU BANDAR UTAMA,3.13175000,101.60689300
12000835,PJ836,WESTPOINT,3.12940900,101.60673500
12000836,PJ804,MASJID BANDAR UTAMA,3.12622200,101.60629800
12000837,PJ842,PERUMAHAN BU 12/7,3.12528600,101.60431600
12000838,PJ805,MUTIARA TROPICANA (1),3.12875300,101.59972100
12000839,PJ515,SMK TROPICANA,3.12885100,101.59847700
12000840,PJ516,BAYU PUTERI APARTMENT,3.13194200,101.59740200
12000841,PJ522,MERCHANT SQUARE,3.13255500,101.60096500
12000842,PJ523,ASRAMA TROPICANA,3.13189300,101.60037400
12000843,PJ525,KOMERSIAL MUTIARA TROPICANA,3.12919600,101.59906900
12000844,PJ837,(M1) MUTIARA TROPICANA (2),3.12935600,101.60049200
12000845,PJ838,PERUMAHAN BU 11/12,3.12547600,101.60426200
12000846,PJ839,MASJID BANDAR UTAMA (OPP),3.12645400,101.60621400
12000847,PJ840,PERUMAHAN BU 11/7,3.12981800,101.60647100
12000848,PJ841,PERUMAHAN BU 11/1,3.13144800,101.60661200
12000849,KJ486,KLINIK KESIHATAN KAJANG,2.97798060,101.82597000
12000850,KJ498,KLINIK KESIHATAN KAJANG,2.97800000,101.82563000
12000851,KJ485,TAMAN MAJU KAJANG,2.97978070,101.82066000
12000852,KJ499,TAMAN MAJU KAJANG,2.97970560,101.82004000
12000853,KJ500,KAJANG PRIMA,2.98365550,101.81567400
12000854,KJ484,KAJANG PRIMA,2.98421380,101.81513000
12000855,KJ483,KOLEJ VOKASIONAL KAJANG,2.98549720,101.81312000
12000856,KJ501,KOLEJ VOKASIONAL KAJANG,2.98582500,101.81241000
12000857,KJ482,TAMAN RESTU 7,2.98755550,101.80795000
12000858,KJ502,TAMAN RESTU 7,2.98736950,101.80754000
12000859,KJ28,SUNWAY CHERAS,3.08207770,101.76720400
12000860,AJ314,BAYU MAS,3.09134170,101.75232000
12000861,AJ443,BAYU MAS,3.09158900,101.75208000
12000862,AJ315,FLAT TAMAN BUKIT SEGAR,3.08980560,101.75165000
12000863,AJ320,FLAT TAMAN BUKIT SEGAR,3.08992500,101.75145000
12000866,KJ16,TAMAN CUEPACS (SELATAN),3.08036400,101.76165000
12000867,KJ15,TAMAN CUEPACS (UTARA),3.08017780,101.76147000
12000868,KJ7,KOMERSIAL CHERAS AWANA,3.08940840,101.76108000
12000871,KJ33,SEGAR PERDANA 7 (SELATAN),3.08828620,101.76057400
12000872,KJ34,SEGAR PERDANA 7 (UTARA),3.08834170,101.76045000
12000873,KJ14,TAMAN FERNGROVE (SELATAN),3.08265570,101.76027000
12000874,KJ13,TAMAN FERNGROVE (UTARA),3.08236120,101.76016000
12000875,KJ18,S.K. TAMAN CUEPACS (OPP),3.07923600,101.76012000
12000876,KJ3,TMN BKT SEGAR JAYA 2,3.09479170,101.75969000
12000877,KJ35,TMN BKT SEGAR JAYA 2,3.09485000,101.75957500
12000878,KJ288,PANGSAPURI LAGENDA MAS,3.06509450,101.75933000
12000879,KJ20,S.K. TAMAN CUEPACS,3.07953050,101.75892000
12000880,KJ292,SRA TMN TUN PERAK,3.06201100,101.75802000
12000882,KJ1,CEMARA APARTMENT,3.09466670,101.75759000
12000883,KJ297,PANGSAPURI SRI MESRA,3.06121400,101.75753000
12000884,KJ21,MASJID AL-AMIN (OPP),3.07922220,101.75752000
12000885,KJ22,MASJID AL-AMIN,3.07892780,101.75730000
12000886,KJ23,MARKAS P.G.A,3.07775830,101.75598000
12000887,KJ711,MAKTAB PDRM K.L,3.07623340,101.75461600
12000888,AJ313,THE MARK CHERAS (OPP),3.09401940,101.75368000
12000889,AJ321,THE MARK CHERAS,3.09382220,101.75334000
12000890,KL758,TAMAN CONNAUGHT (BARAT),3.08176950,101.73603000
12000891,KL752,TAMAN CONNAUGHT (BARAT),3.08207230,101.73595000
12000892,KJ712,CHERAS ZEN PARK,3.07852770,101.74995000
12000893,KL133,TAMAN CHERAS UTAMA (UTARA),3.10461660,101.74970000
12000894,AJ316,CENGAL APARTMENT,3.08863880,101.74901000
12000895,KL923,KETUMBAR HILL (UTARA),3.10425830,101.74871000
12000896,AJ319,CENGAL APARTMENT,3.08835840,101.74799000
12000899,KL755,TAMAN BUKIT HIJAU,3.08607500,101.74153000
12000900,KL1723,CHERAS LEISURE MALL,3.08854720,101.74103000
12000901,KL132,HOSPITAL PANTAI CHERAS,3.10188600,101.74100500
12000902,KL131,CHERAS BUSINESS CENTER (BARAT),3.10012770,101.74052400
12000903,KL754,TAMAN TAYNTON VIEW (TIMUR),3.08776950,101.73924000
12000904,KL753,UCSI UNIVERSITY,3.08525820,101.73678000
12000905,KL2222,TAMAN TAYNTON VIEW (BARAT),3.08758330,101.73672500
12000906,KL1784,APARTMENT DESA TUN RAZAK,3.07910280,101.71921000
12000907,KL1785,APARTMENT DESA TUN RAZAK,3.07918620,101.71878000
12000908,KL751,IKON CONNAUGHT (OPP),3.08212780,101.73231500
12000909,KL759,IKON CONNAUGHT,3.08185550,101.73189500
12000910,KL1786,DTR APARTMENT,3.07825280,101.71763000
12000911,KL2168,DESA TUN RAZAK (UTARA),3.08097220,101.72257000
12000912,KL2167,DESA TUN RAZAK (UTARA),3.08046940,101.72204600
12000913,KL152,(M1) LRT BANDAR TASIK SELATAN,3.07610560,101.71206000
12000914,KL421,KOMERSIAL DAMAI PERDANA,3.05487230,101.74326000
12000915,KJ490,KOMERSIAL BANDAR TEKNOLOGI,2.97296300,101.82849000
12000916,KJ900,APARTMENT SERI BAIDURI,2.97101600,101.82695000
12000917,KJ911,MYDIN MALL,2.97584800,101.82538600
12000918,KJ491,SURAU AL-HIDAYAH,2.96859900,101.82526400
12000919,KJ496,SIMPANG JLN 3/20,2.96884700,101.82515000
12000920,KJ909,PANGSAPURI VISTA PERDANA,2.97013700,101.82468400
12000921,KJ910,SYMPHONY RESIDENCE,2.97271900,101.82461500
12000922,KJ492,PERUMAHAN SEK. 3 (BARAT),2.96656800,101.82249500
12000923,KJ495,PERUMAHAN SEK. 3 (TIMUR),2.96667600,101.82233000
12000924,KJ494,PERINDUSTRIAN SEK. 4 (SELATAN),2.96296600,101.82116000
12000925,KJ901,PERINDUSTRIAN SEK. 4 (BARAT),2.96104400,101.82020000
12000926,KJ902,HILL PARK 1,2.95716400,101.81906000
12000927,KJ908,PERINDUSTRIAN SEK. 4,2.96270000,101.81835000
12000928,KJ903,HILLVIEW RESIDENCE,2.95612300,101.81670000
12000929,KJ904,FLAT BLOK M,2.95645900,101.81545000
12000930,KJ907,PERINDUSTRIAN SEK. 4 (TIMUR),2.96243900,101.81467400
12000931,KJ894,KOMERSIAL TAMAN KAJANG PRIMA,2.98329500,101.81447600
12000932,KJ895,SEK. KEB. TAMAN JASMIN,2.98293600,101.81375000
12000933,KJ896,SEK. KEB. TAMAN JASMIN GATE 2,2.98179400,101.81351000
12000934,KJ905,(M1) TAMAN HARMONI,2.95752700,101.81261400
12000935,KJ831,MUTIARA AVENUE,3.01139700,101.81179000
12000936,KJ832,FLAT SRI SAUJANA,3.01112000,101.81178000
12000937,KJ897,PADANG BOLA TAMAN JASMIN,2.98158200,101.81138000
12000938,KJ759,(M1) PALM WALK 3,3.05313500,101.81066000
12000939,KJ906,PERINDUSTRIAN SEK. 6,2.96042500,101.81009000
12000940,KJ854,KOMPLEKS PENJARA KAJANG,3.00106100,101.81005000
12000941,KJ760,PALM WALK 1 &2 (OPP),3.04765100,101.80849500
12000942,KJ898,SIMPANG JASMIN 20,2.98141800,101.80819000
12000943,KJ833,PERUMAHAN PRIMA SAUJANA,3.01030300,101.80798000
12000944,KJ758,TAMAN IKHLAS,3.05537700,101.80781600
12000945,KJ853,DERET KEDAI TAMAN INDAH,2.99794400,101.80778500
12000946,KJ852,DERET KEDAI TAMAN KAJANG BARU,2.99646400,101.80651000
12000947,KJ761,GREEN ACRE CONDO,3.04600200,101.80645000
12000948,KJ834,KOMERSIAL PRIMA SAUJANA,3.00868500,101.80607000
12000949,KJ851,APARTMENT INDAH,2.99740100,101.80601000
12000950,KJ846,TAMAN KAJANG BARU,2.99761200,101.80584000
12000951,KJ850,TAMAN BERLIAN (2),3.00024900,101.80542000
12000952,KJ830,TAMAN PUNCAK SAUJANA,3.01416100,101.80540000
12000953,KJ847,TAMAN BERLIAN (1),3.00044700,101.80527500
12000954,KJ899,FLAT BUKIT MEWAH,2.98383200,101.80489000
12000955,KJ866,TAMAN PERMAI,2.98646500,101.80447400
12000957,KJ829,TADIKA KEMAS DESA SRI JENARIS,3.01248600,101.80416000
12000958,KJ855,TAMAN SENTOSA,2.99260600,101.80414000
12000959,KJ503,TAMAN ZAMRUD,2.98804800,101.80385000
12000960,KJ757,GARDEN PARK CONDO,3.05472300,101.80374000
12000961,KJ849,TAMAN MEGAH,3.00130300,101.80372000
12000962,KJ481,KAWASAN PERNIAGAAN NILAM,2.98835180,101.80347400
12000963,KJ194,KOLEJ KOMUNITI HULU LANGAT,3.01031800,101.80341000
12000964,KJ865,FLAT TAMAN BUKIT MUTIARA,2.98521800,101.80304000
12000965,KJ861,DERET KEDAI BUKIT MEWAH 47,2.98336800,101.80259000
12000966,KJ864,TAMAN BUKIT MUTIARA,2.98354700,101.80241400
12000967,KJ856,DERET KEDAI TMN BUKIT CANTIK,2.99221300,101.80237000
12000969,KJ848,(M1) DESA MUTIARA APARTMENT,3.00151200,101.80224000
12000970,KJ862,SIMPANG BUKIT MEWAH 49,2.98048900,101.80185000
12000971,KJ196,DESA SRI JENARIS,3.01100000,101.80164000
12000972,KJ438,SG. LONG CLUB HOUSE,3.04170700,101.80142000
12000973,KJ197,DESA SRI JENARIS,3.01075900,101.80132000
12000974,KJ756,SMK. BANDAR SG. LONG,3.05202900,101.80128500
12000975,KJ804,TAMAN BUKIT MEWAH FASA 8A,2.97474400,101.80113000
12000976,KJ863,(M1) TAMAN BUKIT MEWAH FASA 7,2.97935700,101.80080000
12000977,KJ803,APARTMENT SUTERA,2.97337100,101.80078000
12000978,KJ857,KUARTERS JKR SG. JELOK,2.99195300,101.80047000
12000980,KJ504,TAMAN LEMBAH MEWAH,2.99002400,101.80022400
12000981,KJ805,KOMERSIAL TAMAN BUKIT MEWAH,2.97476100,101.79954000
12000982,KJ480,PERSIMPANGAN SG. JELOK,2.99107300,101.79942000
12000983,KJ802,APARTMENT CEMARA,2.97236000,101.79928000
12000984,KJ403,BDR SG. LONG 7 (TIMUR),3.04937500,101.79891000
12000985,KJ801,PERUMAHAN SEKSYEN 3,2.97109700,101.79851500
12000986,KJ806,TAMAN KAJANG UTAMA,2.97501600,101.79796000
12000987,KJ795,KUARTERS GURU  KAJANG UTAMA,2.97361900,101.79670000
12000988,KJ835,SIMPANG JLN. MELATI 2,3.00972100,101.79656000
12000989,KJ479,SEK. MEN. TINGGI KAJANG,2.99195770,101.79521000
12000990,KJ836,SURAU AL HIDAYAH (OPP),3.00908500,101.79514000
12000991,KJ505,METRO POINT KAJANG,2.99178500,101.79503000
12000992,KJ800,PERUMAHAN SEKSYEN 2,2.97003800,101.79497500
12000993,KJ361,BDR SG. LONG 7 (BARAT),3.04601400,101.79483000
12000994,KJ828,SURAU AL HIDAYAH SG. KANTAN,3.00905600,101.79475000
12000995,KJ676,TAMAN KAJANG SENTRAL,2.97707100,101.79468000
12000996,KJ796,SMK KAJANG UTAMA,2.97403600,101.79466000
12000997,KJ677,SEKSYEN 1 TAMAN KAJANG UTAMA,2.97676600,101.79449000
12000998,KJ477,HAB UTAR,3.04080200,101.79430400
12000999,KJ564,PERUMAHAN SEK. 6 (UTARA),3.05453800,101.79388000
12001000,KJ871,(M1) PERUMAHAN SEK. 8,3.05704700,101.79388000
12001001,KJ859,SENTOSA AVENUE,2.99468500,101.79381600
12001003,KJ827,SIMPANG JLN. MELOR 6,3.00856500,101.79364000
12001005,KJ797,FLAT KAJANG UTAMA,2.97085800,101.79333000
12001006,KJ837,SPG JLN. MELATI 1,3.00822200,101.79333000
12001007,KJ473,HOSPITAL KAJANG,2.99259000,101.79327000
12001008,KJ793,IMPIAN PERDANA,3.01393800,101.79308000
12001009,KJ506,PEJABAT AIR SELANGOR,2.99247700,101.79304000
12001010,KJ792,IMPIAN GEMILANG,3.01588600,101.79294600
12001011,KJ768,PERUMAHAN SEK. 6 (SELATAN),3.05169800,101.79281600
12001012,KJ798,(M1) FLAT CITRA,2.96874000,101.79245000
12001013,KJ838,LOT 1087,3.00591500,101.79223000
12001014,KJ826,LOT 3082,3.00653900,101.79195000
12001015,KJ799,APARTMENT SURIA,2.97002700,101.79176000
12001016,KJ839,SIMPANG JLN. GHAZALY (OPP),3.00410900,101.79128000
12001017,KJ825,SIMPANG JLN. GHAZALY,3.00425400,101.79124500
12001019,KJ791,(M1) IMPIAN MAKMUR,3.01889500,101.79102000
12001021,KJ472,KOMERSIAL BANDAR KAJANG,2.99314100,101.79018400
12001023,KJ858,METRO AVENUE (OPP),2.99684900,101.79015000
12001024,KJ507,KOMERSIAL BANDAR KAJANG,2.99299000,101.79014000
12001025,KJ563,KOMERSIAL SEK. 9 (SELATAN),3.05039600,101.79009000
12001026,KJ207,REKO SENTRAL (OPP),2.96808700,101.79005000
12001027,KJ824,SRA. SG. KANTAN (OPP),3.00219700,101.78997000
12001028,KJ205,TAMAN SRI LANGAT 2 (OPP),2.97481400,101.78990000
12001029,KJ840,SRA. SG. KANTAN,3.00193000,101.78989000
12001030,KJ464,REKO SENTRAL,2.96795200,101.78986000
12001031,KJ512,TAMAN REKO JAYA (OPP),2.97905300,101.78985000
12001032,KJ206,SAVILLE KAJANG (OPP),2.97180000,101.78982000
12001033,KJ468,TAMAN HIJAU,2.98075500,101.78972000
12001034,KJ467,TAMAN SRI REKO,2.97907100,101.78970000
12001035,KJ466,TAMAN SRI LANGAT 2,2.97441220,101.78965000
12001036,KJ465,SAVILLE KAJANG,2.97218700,101.78963500
12001037,KJ329,SHELL JLN. SG. LONG,3.04179700,101.78952000
12001038,KJ560,SHELL JLN. SG. LONG (OPP),3.04148600,101.78944000
12001040,KJ450,REKO SENTRAL,2.96573800,101.78933000
12001041,KJ640,IMPIAN JAYA,3.00942600,101.78912000
12001042,KJ842,MENARA MPKj,2.99548900,101.78908500
12001043,KJ690,IMPIAN SETIA,3.00933800,101.78876500
12001044,KJ841,KG. SG. KANTAN,3.00003000,101.78846000
12001045,KJ823,MASJID JAMEK KAJANG (OPP),2.99837500,101.78790000
12001046,KJ508,BANDAR KAJANG,2.99191200,101.78786500
12001047,KJ789,SEK. KEB. SAUJANA IMPIAN,3.01275300,101.78782000
12001048,KJ643,KAJANG PLAZA,2.99550600,101.78776600
12001049,KJ790,IMPIAN SEJATI,3.01503100,101.78768000
12001050,KJ794,PEJ. PENDIDIKAN DAERAH HULU LANGAT,3.00698000,101.78734600
12001051,KJ244,MAHKOTA WALK,3.05123000,101.78729000
12001052,KJ807,TAMAN BANGI,2.97571000,101.78693400
12001054,KJ567,AEON  MAHKOTA CHERAS,3.05447200,101.78633000
12001055,KJ773,(M1) TAMAN SEKAMAT,3.02445400,101.78404000
12001056,KJ788,MRT SUNGAI JERNIH PINTU B,3.00142900,101.78387000
12001057,KJ299,TAMAN RAKAN (TIMUR),3.03549900,101.78258000
12001058,KJ57,SEK. KEB. BUKIT RAYA,3.07230900,101.78253000
12001059,KJ774,SRA. SG. SEKAMAT (OPP),3.02392400,101.78210000
12001060,KJ331,TAMAN RAKAN (TIMUR),3.03553100,101.78209000
12001061,KJ153,MAHKOTA RESIDENCE,3.05170800,101.78206000
12001062,KJ568,MAHKOTA RESIDENCE,3.05140200,101.78205000
12001063,KJ772,SRA. SG. SEKAMAT,3.02399900,101.78193000
12001065,KJ300,TAMAN RAKAN (BARAT),3.03469500,101.78073000
12001066,KJ330,TAMAN RAKAN (BARAT),3.03486200,101.78055000
12001067,KJ820,FLAT RPR KEMACAHAYA 5,3.07619000,101.78033000
12001068,KJ775,SEK. KEB. SERI SEKAMAT (OPP),3.02353000,101.78028000
12001069,KJ56,KG. BKT. RAYA,3.07056300,101.78005000
12001070,KJ771,SEK. KEB. SERI SEKAMAT,3.02353300,101.77977000
12001071,KJ817,KOMERSIAL SEKSYEN 4 TAMBAHAN (OPP),2.96575400,101.77936600
12001072,KJ808,KOMERSIAL SEKSYEN 4 TAMBAHAN,2.96548900,101.77924000
12001073,KJ821,ASIA METROPOLITAN UNIVERSITY,3.07731800,101.77884000
12001074,KJ776,DEWAN SG. SEKAMAT,3.02279600,101.77698500
12001075,KJ55,TAMAN SRI MELAKA BATU 9,3.06972400,101.77691000
12001076,KJ179,TMN DELIMA,3.01699640,101.77663400
12001077,KJ770,DEWAN SG SEKAMAT (OPP),3.02282000,101.77656600
12001078,KJ912,SURIA RESIDENCE,3.07810200,101.77643000
12001079,KJ777,PREMIS LOT 4711,3.01883600,101.77634400
12001080,KJ809,SEKSYEN 4 TAMBAHAN,2.96537800,101.77625000
12001081,KJ816,SEKSYEN 4 TAMBAHAN (OPP),2.96565700,101.77620000
12001082,KJ180,MASJID KG SG SEKAMAT,3.02115270,101.77559000
12001083,KJ187,MASJID KG SG SEKAMAT,3.02192430,101.77556600
12001084,KJ303,INSTITUT PENGURUSAN VETERINAR,3.03547700,101.77551000
12001085,KJ304,INSTITUT PENGURUSAN VETERINAR,3.03604700,101.77524600
12001086,KJ54,KLINIK KESIHATAN BATU 9,3.06929200,101.77506000
12001087,KJ43,MASJID BESAR BT. 9,3.06206400,101.77500000
12001088,KJ913,VENICE HILL TOWER 10,3.07826100,101.77478000
12001089,KJ186,PREMIS LOT 4291,3.02464400,101.77446000
12001090,KJ764,MRT BANDAR TUN HUSSEIN ONN PINTU B,3.04849100,101.77434000
12001091,KJ181,PREMIS LOT 4291 (OPP),3.02442460,101.77431000
12001092,KJ185,SIMPANG JLN. SARJAN MAT,3.02579900,101.77391000
12001093,KJ778,KG. SG. BALAK (1),3.01551100,101.77334600
12001094,KJ787,KG. SG. BALAK (2),3.01557100,101.77321000
12001095,KJ436,PUSAT KOMERSIAL SEK 7 (UTARA),2.96878900,101.77295000
12001097,KJ755,(M1) MRT BATU 11 CHERAS PINTU A,3.04094900,101.77288000
12001098,KJ439,PUSAT KOMERSIAL SEK 7 (SELATAN),2.97013400,101.77284000
12001099,KJ882,(M1) SEK. KEB. TAMAN PUTERI,3.07914000,101.77263000
12001100,KJ53,PEJABAT POS (CAW. SERAHAN) BATU 9,3.06859500,101.77221000
12001101,KJ722,PERSIMPANGAN SG. LONG,3.03620000,101.77190000
12001102,KJ786,SRA. KG. SG. BALAK,3.01490700,101.77157600
12001104,KJ44,FLAT TAMAN KOTA CHERAS,3.06018400,101.77106000
12001105,KJ45,TAMAN KOTA CHERAS FASA 1,3.06042980,101.77093500
12001106,KJ810,SURAU AL-UKHUWAH SEKSYEN 8 (BARAT),2.97143700,101.77093000
12001107,KJ779,KEDAI BASIKAL KG SG. BALAK,3.01448800,101.77089000
12001108,KJ891,SURAU AL-UKHUWAH SEKSYEN 8 (TIMUR),2.97158400,101.77082000
12001109,KJ914,TAMAN MUDUN,3.08134000,101.77055000
12001110,KJ40,BALAI POLIS BATU 9 CHERAS,3.06910100,101.77026000
12001111,KJ273,SIMPANG MEGAH 12A,3.05652700,101.76987000
12001112,KJ767,SIMPANG SRI CHERAS. TAMAN MURNI,3.05934400,101.76965000
12001113,KJ341,PLAZA KASTURI (OPP),3.03817700,101.76926000
12001114,KJ30,TAMAN MUDUN (SELATAN),3.08149030,101.76925000
12001115,KJ811,SERI WIRANI SEKSYEN 8 (BARAT),2.97198000,101.76922600
12001116,KJ336,PLAZA KASTURI,3.03796200,101.76900000
12001117,KJ39,S.R.K. BATU 9 CHERAS (OPP),3.07042400,101.76874500
12001118,KJ272,SURAU NURUL HIDAYAH,3.05468800,101.76873000
12001119,KJ890,SERI WIRANI SEKSYEN 8 (TIMUR),2.97215700,101.76870000
12001120,KJ271,APARTMENT TAMAN MEGAH CHERAS 3,3.05190300,101.76868400
12001121,KJ665,CHERAS SELATAN 118,3.03568400,101.76855500
12001122,KJ260,TAMAN DAMAI JAYA,3.06232700,101.76836400
12001123,KJ893,DESA WANGSA APARTMENT,3.05096900,101.76742600
12001124,KJ812,TAMAN DESA SURADA,2.96863100,101.76728000
12001125,KJ38,TAMAN SUNTEX,3.07126400,101.76724000
12001126,KJ889,TAMAN SERI MUTIARA,2.96907400,101.76712000
12001127,KJ261,TAMAN KOTA CHERAS FASA 3,3.06587700,101.76655600
12001128,KJ781,APARTMENT TERATAI,3.00861500,101.76616000
12001129,KJ666,JEJANTAS TAMAN SRI INDAH,3.03212300,101.76609000
12001130,KJ780,TAMAN CHERAS PRIMA (1),3.01198000,101.76607000
12001131,KJ785,TAMAN CHERAS PRIMA (2),3.01299100,101.76605000
12001132,KJ343,PERINDUSTRIAN CHERAS JAYA (3),3.02064600,101.76574000
12001133,KJ309,TAMAN DESA WANGSA,3.05214900,101.76569000
12001134,KJ432,SEKSYEN 8 FASA 2 (BARAT),2.96581000,101.76567000
12001135,KJ693,JEJANTAS AEON CHERAS SELATAN,3.03222900,101.76553000
12001136,KJ734,PERINDUSTRIAN CHERAS JAYA (2),3.02316700,101.76530500
12001137,KJ915,TAMAN SRI MUJUR,3.07452300,101.76514000
12001138,KJ25,TAMAN ALAM JAYA (UTARA),3.08080100,101.76490000
12001139,KJ431,SEKSYEN 8 FASA 2 (TIMUR),2.96591900,101.76463000
12001140,KJ308,SEK. KEB. BTHO,3.05366600,101.76461000
12001141,KJ782,SURAU TAMAN SUTERA (OPP),3.00705100,101.76448000
12001142,KJ733,PERINDUSTRIAN CHERAS JAYA (1),3.02625080,101.76414000
12001144,KJ784,FLAT CHERAS PRIMA,3.01305200,101.76341000
12001145,KJ307,PERUMAHAN SUASANA 5,3.05355000,101.76337400
12001146,KJ667,SUSUR CHERAS JAYA,3.03077100,101.76337000
12001147,KJ31,TAMAN ALAM JAYA (SELATAN),3.07780300,101.76334000
12001148,KJ736,TAMAN CHERAS JAYA PERINGKAT 1,3.02736300,101.76334000
12001149,KJ357,TAMAN CHERAS JAYA FASA 1 2A/2B,3.02573300,101.76322000
12001150,KJ870,COLOMBIA ASIA HOSPITAL,3.03108600,101.76318000
12001151,KJ10,(M1) HAB TAMAN AWANA CHERAS,3.08796200,101.76289000
12001152,KJ351,SEK. KEB CHERAS JAYA (OPP),3.01909300,101.76278000
12001153,KJ264,TAMAN PUTRI JAYA,3.06737100,101.76265000
12001154,KJ283,TAMAN LAGENDA MAS,3.06597970,101.76124600
12001155,KJ762,TAMAN CHERAS JAYA FASA 2B,3.02471300,101.76104000
12001156,KJ876,KOMERSIAL SEKSYEN 6,2.96191000,101.76095600
12001157,KJ674,KOMERSIAL DUTAMAS CHERAS,3.03022200,101.76095600
12001158,KJ765,(M1) PERUMAHAN SUTERA 3,3.00823700,101.76088000
12001159,KJ783,SUTERA RESIDENCES,3.01152900,101.76086400
12001160,KJ875,PUNCAK BANGI (OPP),2.95903500,101.76063000
12001161,KJ306,PERUMAHAN SUASANA 4 (OPP),3.05284700,101.76048000
12001162,KJ352,TAMAN CHERAS JAYA FASA 5,3.01895500,101.76002500
12001163,KJ813,KG. SG. RAMAL DALAM (BARAT),2.96578900,101.75994000
12001164,KJ892,KOMERSIAL SUADAMAI (OPP),3.05505300,101.75949000
12001165,KJ291,PANGSAPURI WIRA,3.06320670,101.75880400
12001166,KJ535,PERSIMPANGAN JLN DATO DAGANG,2.96232700,101.75873000
12001167,KJ433,D'8 BANDAR BARU BANGI (SELATAN),2.96369400,101.75868000
12001168,KJ869,(M1) TAMAN CHERAS JAYA FASA 7,3.01998900,101.75851000
12001169,KJ888,KG. SG. RAMAL DALAM (TIMUR),2.96590400,101.75814000
12001170,KJ353,TAMAN CHERAS JAYA FASA 3 (OPP),3.02199000,101.75798000
12001171,KJ430,SURAU AL-AMIN SEKSYEN 8,2.96437500,101.75764500
12001172,KJ298,(M1) PANGSAPURI WAJA,3.05740800,101.75764500
12001173,KJ814,D'8 BANDAR BARU BANGI (UTARA),2.96558800,101.75761000
12001174,KJ534,KOMPLEKS PENTADBIRAN DAERAH HULU LANGAT (OPP),2.95634900,101.75716400
12001175,KJ536,(M1) KOMPLEKS PKNS BANGI,2.96238300,101.75687000
12001176,KJ703,SUSUR U-TURN CHERAS JAYA (OPP),3.02884600,101.75613000
12001177,KJ24,MARKAS P.G.A (OPP),3.07762700,101.75612000
12001178,KJ704,SUSUR U-TURN CHERAS JAYA,3.02793000,101.75594000
12001179,KJ874,HOSPITAL PAKAR AN NUR,2.95970900,101.75379000
12001180,KJ415,APARTMENT RAKYAT(OPP),3.01627100,101.75331000
12001181,KJ872,3B CURVE BUSINESS PARK,2.96383500,101.75307500
12001182,KJ418,APARTMENT RAKYAT,3.01632700,101.75304000
12001183,KJ763,TAMAN IMPIAN EHSAN 3,3.01171400,101.75303000
12001184,KJ414,APARTMENT FLORA (OPP),3.01817100,101.75210600
12001185,KJ873,KOMERSIAL MEDAN PB,2.96128800,101.75184000
12001186,KJ419,APARTMENT FLORA,3.01836540,101.75181600
12001187,KJ413,APARTMENT MERANTI,3.02004800,101.75166000
12001188,KJ420,APARTMENT SERINDIT,3.02017800,101.75146500
12001189,KJ737,TAMAN INDUSTRI BALAKONG JAYA,3.01342200,101.75139000
12001190,KJ739,TAMAN SETIA,3.01360100,101.75129000
12001192,KJ411,KOMERSIAL DESA RIA (OPP),3.02365000,101.75041000
12001193,KJ421,KOMERSIAL DESA RIA,3.02346000,101.75018000
12001194,KJ673,KG. BARU BALAKONG,3.02658700,101.74953000
12001195,KL2318,MADRASATUL AMALIAH,3.10681300,101.74816000
12001196,KL922,KETUMBAR HILL (TIMUR),3.10361600,101.74765000
12001198,KL1710,DEWAN SEBAGUNA DBKL TAMAN SEGAR,3.09655600,101.74673500
12001199,KL921,TAMAN RAKYAT,3.10332800,101.74653000
12001200,AJ318,MERANTI APARTMENT,3.08591100,101.74652000
12001202,KL2368,TAMAN SUPREME (TIMUR),3.09707400,101.74618000
12001203,KL2374,FLAT TAMAN BUKIT ANGGERIK,3.06485600,101.74616000
12001204,KL2376,TAMAN BUKIT ANGGERIK (SELATAN),3.06061000,101.74615500
12001205,KL2375,TAMAN BUKIT ANGGERIK (UTARA),3.06283100,101.74614000
12001206,KL2320,SURAU MANBA'UL TAQWA,3.10634570,101.74603000
12001207,KL2365,MRT TAMAN CONNAUGHT PINTU C,3.07698100,101.74596000
12001208,KL1708,FLAT TAMAN SEGAR,3.08770900,101.74586500
12001209,KL2355,SEK. KEB. TAMAN SEGAR,3.09047600,101.74583400
12001210,KJ698,TAMAN TAMING JAYA,3.02669500,101.74578000
12001211,KL2377,DEWAN SERBAGUNA ALAM DAMAI (OPP),3.05766800,101.74574000
12001212,KL1707,IBU PEJABAT PERHILITAN (OPP),3.08445900,101.74497000
12001213,KL915,IBU PEJABAT PERHILITAN,3.08462300,101.74483500
12001214,KL2322,KG. CHERAS BARU (TIMUR),3.10698600,101.74462000
12001215,KL2356,TAMAN SUPREME (BARAT),3.09852600,101.74437000
12001218,KL927,(M1) TAMAN CHERAS,3.10296100,101.74297000
12001219,KL917,PETRONAS TAMAN SEGAR (SELATAN),3.08672860,101.74288000
12001221,KL2378,PANGSAPURI SERI PERINDU,3.05489900,101.74133000
12001222,KL757,CHERAS LEISURE MALL,3.08921000,101.74116500
12001223,KL756,MRT TAMAN MUTIARA PINTU B,3.09174800,101.74048000
12001224,KJ699,KOMERSIAL TAMING JAYA,3.02551200,101.74046000
12001225,KL2382,DAMAI BESTARI,3.06023900,101.74034000
12001226,KL219,APARTMENT DESA PANDAN BLOK G2,3.14795400,101.74017000
12001227,KL2381,SEK. MEN. ALAM DAMAI,3.05885100,101.73928000
12001228,KL2383,(M1) DESA DAMAI,3.06140300,101.73908000
12001230,KL1839,SEK. KEB. DESA PANDAN,3.15017900,101.73841000
12001231,KL2379,FLAT TAMAN DESA CHERAS BLOK 9,3.05498200,101.73795000
12001232,KL2370,KOMERSIAL DESA PANDAN (TIMUR),3.14671500,101.73773000
12001233,KL2371,APARTMENT DESA PANDAN BLOK J4,3.15158500,101.73747000
12001234,KL2380,FLAT TAMAN DESA CHERAS BLOK 5,3.05697800,101.73736600
12001235,KL2386,DAMAI RASA,3.07161300,101.73711000
12001236,KL918,TAMAN CONNAUGHT (UTARA),3.08269900,101.73690000
12001237,KL2372,KUARTERS KERAJAAN JLN U-THANT (OPP),3.15260500,101.73662600
12001238,KL2387,DAMAI JAYA,3.07334900,101.73646000
12001239,KL2384,DAMAI MURNI,3.06486400,101.73635000
12001240,KL2385,DAMAI KASIH,3.06775900,101.73627000
12001241,KL1842,G VILLAGE,3.14956800,101.73623000
12001242,KL2388,DAMAI NIAGA,3.07509400,101.73607000
12001243,KL2373,KOMERSIAL DESA PANDAN (SELATAN),3.14803100,101.73607000
12001244,KL223,FLAT DESA PANDAN BLOK B14 (OPP),3.14591200,101.73557000
12001245,KL259,FLAT DESA PANDAN BLOK B14,3.14589000,101.73527500
12001246,KL2362,SIMPANG JALAN PRIA 1,3.13650700,101.73460000
12001247,KL2361,PETRON TAMAN MALURI,3.13455500,101.73383000
12001248,KL258,FLAT DESA PANDAN BLOK B2,3.14479700,101.73370000
12001249,KL2364,I.K.M. KL,3.14324500,101.73365000
12001250,KL239,(M1) KLINIK KESIHATAN KG PANDAN,3.14455500,101.73318500
12001251,KL245,SIMPANG JALAN WIRAWATI 5,3.14046500,101.73302500
12001252,KL2363,PERTIWI INDAH CONDO (OPP),3.13758600,101.73275000
12001253,KL2360,FLAT TAMAN MALURI (OPP),3.13400800,101.73230000
12001254,KL244,SIMPANG JALAN WIRAWATI 8,3.13898900,101.73228500
12001255,KL246,PUSAT PERDAGANGAN KG. PANDAN,3.14434700,101.73074000
12001256,KL888,INSTITUT KEMAHIRAN BAITULMAL,3.13482700,101.73002000
12001257,KL247,KELAB ROYAL SELANGOR,3.14418500,101.72912000
12001258,KL1663,PPR PERKASA,3.13593100,101.72802000
12001259,KL248,PETRONAS TAMAN MALURI,3.14267800,101.72797400
12001260,KL250,S.M.K. AMINUDDIN BAKI (SELATAN),3.14024200,101.72705000
12001261,KL887,KOMPLEKS BELIA & SUKAN KG. PANDAN,3.13837600,101.72633000
12001262,KL399,BULATAN KG. PANDAN,3.13759680,101.72423600
12001264,KL267,MENARA RHB (OPP),3.14435700,101.72149000
12001266,KL2392,PLAZA DWITASIK,3.10232370,101.71410080
12001267,KL2393,PUSAT PERNIAGAAN DANAU LUMAYAN,3.10074390,101.71552190
12001268,KL1976,FLAT TAMAN MULIA (2),3.08927700,101.71570000
12001269,KL2394,BINTANG MAS CONDOMINIUM,3.11227700,101.71675000
12001270,KL334,UNIT BERKUDA DBKL (UTARA),3.09467030,101.71716650
12001271,KL1960,MASJID SAIDINA OTHMAN BIN AFFAN,3.09050350,101.71766000
12001272,KL1679,WISMA ZELAN,3.09957700,101.71785000
12001273,KL1980,TAMAN TASIK PERMAISURI,3.09671630,101.71828050
12001274,KL891,WISMA INDAH,3.13364400,101.71831500
12001275,KL2390,APARTMENT DESA BANGSAWAN,3.08916000,101.71880000
12001277,KL366,WARISAN CITY VIEW (OPP),3.12894200,101.72052000
12001278,KL2391,QUEEN'S AVENUE,3.12889100,101.72140000
12001279,KL1991,KONDO SERI MAS,3.11330500,101.72190000
12001280,KL1998,PEJ. DBKL ZON 1,3.11296800,101.72193000
12001281,KL1676,BALAI BOMBA TUN RAZAK,3.08893800,101.72220600
12001282,KL367,SUNWAY VELOCITY RESIDENCE,3.12773800,101.72226000
12001283,KL283,KELAB RENANG CHERAS (OPP),3.09830300,101.72249600
12001284,KL892,MRT COCHRANE PINTU A,3.13328600,101.72268000
12001285,KL282,PUSAT PERUBATAN UKM,3.10042600,101.72272000
12001286,KL284,PUSAT BELIA ANTARABANGSA KL (OPP),3.09636740,101.72294000
12001287,KL362,JAB. KESIHATAN & ALAM SEKITAR DBKL,3.12668600,101.72362500
12001288,KL328,PASAR BESAR CHERAS,3.11243300,101.72380000
12001289,KL281,S.M. TEKNIK KL (OPP),3.10349940,101.72397600
12001290,KL280,KLINIK KESIHATAN CHERAS,3.10665150,101.72594000
12001291,KL1972,BANDAR TUN RAZAK (TIMUR),3.09218500,101.72677000
12001292,KL1913,SK TMN MIDAH,3.09692700,101.72713000
12001293,KL1971,TMN MIDAH (TIMUR),3.09406400,101.72877000
12001294,KL315,(M1) DATARAN DWITASIK,3.09907190,101.71169410
12001295,KL302,CENDANA APARTMENT,3.09850760,101.71307850
12001296,KL1690,LRT CHERAS,3.11239720,101.71454000
12001297,KL1985,LAMAN TASIK CONDOMINIUM,3.10473600,101.71461000
12001298,KL1986,BAH. TEKNOLOGI PENDIDIKAN NEGERI W.P,3.10479160,101.71500000
12001299,KL296,FLAT SRI KOTA,3.08785270,101.71500000
12001300,KL1978,VISTA AMANI CONDOMINIUM,3.09615190,101.71518830
12001301,KL1689,SERI PUTERI CONDOMINIUM,3.11179990,101.71525560
12001302,KL297,FLAT TAMAN MULIA (1),3.08840000,101.71563000
12001304,KL317,VISTA TASIK,3.10651400,101.71590400
12001306,KL1974,TAMAN MULIA,3.09043620,101.71667000
12001309,KL329,MASJID AZZUBAIR IBNUL AWWAM,3.11423600,101.72036000
12001310,KL330,MASJID AZZUBAIR IBNUL AWWAM (OPP),3.11433890,101.72044000
12001311,KL287,PUSAT PENJAJA JLN JUJUR 3,3.08794450,101.72080000
12001316,KL347,FLAT SRI LABUAN,3.09065620,101.72143830
12001317,KL326,FLAT SRI MELAKA (BARAT),3.10893570,101.72177860
12001318,KL327,FLAT SRI MELAKA (BARAT),3.10913210,101.72185100
12001319,KL350,STADIUM BOLA SEPAK KL,3.09977220,101.72233000
12001320,KL288,MADRASAH MAKARIMUL AKHLAK,3.08782500,101.72258000
12001321,KL349,PUSAT BELIA ANTARABANGSA KL,3.09601380,101.72270000
12001322,KL348,INSTITUT LATIHAN DBKL,3.09316950,101.72276000
12001323,KL1699,FLAT SRI MELAKA BLOK 26,3.10876110,101.72288180
12001324,KL325,(M2) FLAT SRI MELAKA BLOK 26,3.10865280,101.72288500
12001325,KL289,(M1) KAWASAN PERINDUSTRIAN B.T.R,3.08666100,101.72322000
12001326,KL351,S.M. TEKNIK KL,3.10327770,101.72365000
12001327,KL1698,(M3) PASAR BESAR CHERAS,3.11225560,101.72369400
12001328,KL346,PERINDUSTRIAN KILANG MIDAH,3.08910000,101.72391000
12001329,KL320,FLAT SRI PULAU PINANG BLOK 13 (OPP),3.11642770,101.72423600
12001330,KL331,FLAT SRI PULAU PINANG BLOK 13,3.11613600,101.72436000
12001331,KL1700,FLAT SRI MELAKA (TIMUR),3.11097000,101.72474900
12001332,KL324,FLAT SRI MELAKA (TIMUR),3.11100180,101.72484020
12001333,KL1843,TMN JAYA (UTARA),3.09439160,101.72521000
12001334,KL352,KLINIK KESIHATAN CHERAS,3.10659170,101.72567000
12001335,KL345,TMN MIDAH (SELATAN),3.09025000,101.72571600
12001336,KL1893,TMN MIDAH (BARAT),3.09639450,101.72619000
12001337,KL353,VELODROM KL,3.11056950,101.72775000
12001338,KL361,MRT MALURI PINTU A,3.12326120,101.72784400
12001339,KL279,VELODROM KL,3.11042790,101.72806500
12001340,KL869,MRT MALURI PINTU B,3.12350270,101.72815000
12001341,KL1969,PUSAT KOMERSIAL TMN MIDAH,3.09658620,101.72896000
12001342,KL1687,BALAI POLIS SRI PERMAISURI,3.11187400,101.71808270
12001343,KL333,SMK SERI PERMAISURI,3.10732220,101.71677400
12001344,KL295,SIMPANG IKHLAS  5,3.08558600,101.71654000
12001345,KL1999,FLAT SRI PULAU PINANG BLOK 1,3.11748340,101.71978000
12001346,KL332,INDAH MAS APARTMENT,3.11805000,101.72166000
12001347,KL294,SIMPANG BANGSAWAN,3.08465840,101.71929000
12001348,KL318,FLAT SRI JOHOR BLOK 3,3.11676960,101.71931500
12001349,KL1703,KOMPLEKS DARUL PUTERI,3.11666940,101.72819000
12001350,KL1702,STADIUM BADMINTON CHERAS,3.11929180,101.72834000
12001351,KL355,STADIUM BADMINTON CHERAS,3.11932230,101.72809000
12001352,KL322,FLAT SRI SABAH,3.11690000,101.72622000
12001353,KL321,FLAT SRI SABAH,3.11723900,101.72633000
12001354,KL354,KOMPLEKS DARUL PUTERI,3.11670280,101.72793000
12001355,KL292,SIMPANG MEWAH 12,3.08441950,101.72181000
12001356,KL319,INDAH MAS APARTMENT,3.11816120,101.72190000
12001357,KL316,QUEENSVILLE,3.10180000,101.71221000
12001359,SA1039,MASJID KG MERBAU SEMPAK,3.21721300,101.51500000
12001360,SA1038,SIMPANG LORONG 6,3.21429700,101.51501000
12001361,SA1037,SIMPANG LORONG 10 (UTARA),3.21091000,101.51504000
12001362,SA1041,S.R.A MERBAU SEMPAK,3.21691100,101.51506000
12001363,SA1042,SIMPANG LORONG 5,3.21443000,101.51509000
12001364,SA1036,SIMPANG GAJAH 3,3.20658400,101.51510000
12001365,SA1035,MASJID KG KUBU GAJAH (UTARA),3.20325500,101.51514000
12001366,SA1043,SIMPANG LORONG 10 (SELATAN),3.21091600,101.51514000
12001367,SA1034,SIMPANG GAJAH 21,3.20073100,101.51516000
12001368,SA1044,SIMPANG GAJAH 6,3.20697100,101.51520000
12001369,SA1033,KOMPLEKS PERNIAGAAN SIMPANG GAJAH 12,3.19680700,101.51520500
12001370,SA1045,MASJID KG KUBU GAJAH (SELATAN),3.20326900,101.51523000
12001371,SA1046,SIMPANG GAJAH 9,3.20066800,101.51526000
12001372,SA1047,SIMPANG GAJAH 11,3.19685400,101.51531000
12001373,SA624,PERSIMPANGAN JLN. MERBAU SEMPAK,3.21872300,101.51566000
12001374,SA1048,LOT 1770,3.19552700,101.52003500
12001375,SA1032,LOT 1771,3.19542900,101.52006500
12001376,SA1031,SIMPANG GAJAH 14 (BARAT),3.19547700,101.52290000
12001378,SA1049,SIMPANG GAJAH 14 (TIMUR),3.19557300,101.52327000
12001379,SA1050,SIMPANG GAJAH 15,3.19556900,101.52578000
12001380,SA1030,SIMPANG GAJAH 16,3.19547400,101.52580000
12001381,KL1172,AMAN BERINGIN,3.15638330,101.66028600
12001382,KL1173,MENARA MANULIFE,3.15144160,101.66309000
12001387,KL2398,SPG LORONG BRUAS,3.15972500,101.65862000
12001388,KL2399,SPG PERS BRUAS,3.16002500,101.65724000
12001389,KL2400,SPG LORONG BASONG,3.15947500,101.65655000
12001390,KL2401,SK BUKIT DAMANSARA,3.15760000,101.65683000
12001391,KL2402,BERINGIN RESIDENCE,3.15377200,101.66242000
12001392,KL2397,SPG JLN TERUNTONG,3.15851300,101.65983000
12001393,SA1060,SIMPANG GAJAH 23,3.19555400,101.52895000
12001394,PJ779,KOMERSIAL  PEKAKA,3.17531000,101.57614000
12001395,PJ843,SURAU AL - ULUM. SEK. 9,3.17583900,101.58217000
12001396,PJ844,(M1) PERUMAHAN RIMBA RIANG 9/4,3.17479300,101.58068000
12001397,PJ80,S.M.K SEKSYEN 10 KOTA DAMANSARA,3.16995700,101.57846000
12001398,SA713,S.K SUBANG BESTARI (2),3.18076200,101.54262500
12001399,SA715,DEWAN BUNGA MATAHARI U5,3.18008700,101.54109000
12001400,SA696,PANGSAPURI SERI BINTANG (OPP),3.18094300,101.53931400
12001401,SA697,PANGSAPURI MUTIARA SUBANG,3.18123800,101.53705600
12001402,SA704,PERUMAHAN MUTIARA SUBANG (OPP),3.18302500,101.53579000
12001403,SA721,(M1) HAB SUBANG SURIA,3.18421400,101.53532000
12001404,SA707,PANGSAPURI UTARID SUBANG,3.18257300,101.53517000
12001405,SA708,PANGSAPURI MUTIARA SUBANG (OPP),3.18137600,101.53676000
12001406,SA709,PANGSAPURI SERI BINTANG,3.18094700,101.53954000
12001407,SA710,DEWAN BUNGA MATAHARI U5 (OPP),3.18025900,101.54089000
12001408,SA712,S.K SUBANG BESTARI (2) (OPP),3.18081800,101.54245000
12001409,SA1059,PERUMAHAN NOVA U5/75,3.17979400,101.54641000
12001410,PJ373,RITZE PERDANA 2,3.16454100,101.61107000
12001412,KL2349,MASKIARA RESIDENCES,3.15581000,101.62698000
12001413,KL2350,MASJID JAMEK KG. SG. PENCHALA,3.16190900,101.62637000
12001414,KL2351,PETRONAS SG. PENCHALA,3.15807400,101.61573000
12001420,KL1151,BANGSAR PARK (UTARA),3.13573400,101.67346000
12001421,KL1152,BANGSAR PARK (SELATAN),3.13370700,101.67339000
12001422,KL1681,DESA SRI HARTAMAS,3.16353100,101.64764400
12001423,PJ802,S.M.K SEKSYEN 8 KOTA DAMANSARA (OPP),3.17898600,101.57884000
12001424,PJ820,PERUMAHAN PEKAKA 8/1B,3.18081000,101.57903000
12001425,PJ821,PERUMAHAN PEKAKA 8/16,3.18085400,101.58087000
12001426,SA1025,PERUMAHAN NOVA U5/75 (OPP),3.17952100,101.54641000
12001429,SA1055,BT. 17 KG. MERBAU SEMPAK,3.21756500,101.51892000
12001430,SL573,SURAU ZAHIDIAH JALAN KUSTA,3.21650700,101.57704000
12001431,SL574,KLINIK KESIHATAN SG. BULOH,3.21957700,101.57791000
12001432,SL575,MAKMAL KESIHATAN AWAM KEBANGSAAN,3.22111500,101.57706500
12001433,SL576,TAMAN ANJUNG DAMAI,3.22229400,101.57587400
12001435,SL578,KG SRI INDAH B (TIMUR),3.22580100,101.57281000
12001436,SL579,PERSIMPANGAN SRI INDAH 9B (OPP),3.22566600,101.57065000
12001439,SL582,PERSIMPANGAN MP 2 (OPP),3.23612200,101.56223000
12001440,SL583,SURAU DARUL ULUM (OPP),3.23897000,101.56084400
12001441,SL584,PERSIMPANGAN MP 37 (OPP),3.24117200,101.56107000
12001442,SL585,PERSIMPANGAN MP 43 (OPP),3.24408400,101.56110000
12001444,SL587,APARTMENT IMPIAN INDAH,3.24637500,101.56386600
12001445,SL588,TAMAN IMPIAN INDAH,3.24777900,101.56646000
12001446,SL589,PERSIMPANGAN MP 58,3.24640900,101.56473000
12001447,SL590,PERSIMPANGAN MP 43,3.24390700,101.56121000
12001448,SL591,PERSIMPANGAN MP 36,3.24075700,101.56119500
12001449,SL592,SURAU DARUL ULUM,3.23924400,101.56106600
12001450,SL593,PERSIMPANGAN MP 3,3.23639200,101.56228000
12001452,SL595,PERINDUSTRIAN BRP 9,3.23257400,101.56409000
12001453,SL596,PERSIMPANGAN BRP 8/2,3.23057900,101.56496000
12001455,SL598,TAMAN VILLA PUTRA,3.22653200,101.56756600
12001457,SL600,PERSIMPANGAN SRI INDAH 9B,3.22576300,101.57056400
12001458,SL601,KG SRI INDAH B (BARAT),3.22586800,101.57257000
12001459,SL602,LOT 129 KG MELAYU (OPP),3.22405700,101.57450000
12001460,SL603,TAMAN ANJUNG DAMAI (OPP),3.22295100,101.57548500
12001461,SL604,MAKMAL KESIHATAN AWAM KEBANGSAAN (OPP),3.22123300,101.57714000
12001462,SL605,KLINIK KESIHATAN SG. BULOH (OPP),3.21956600,101.57806400
12001463,SL606,SURAU ZAHIDIAH JALAN KUSTA (OPP),3.21643100,101.57712600
12001465,SA690,APARTMENT JASMIN (OPP),3.16322300,101.53550000
12001466,SA691,PANGSAPURI MERAK,3.16748900,101.53406000
12001467,SA694,PERUMAHAN SUBANG GALAKSI,3.16930800,101.53405000
12001468,SA695,TAMAN DESA SUBANG (OPP),3.17304900,101.53740000
12001469,SA1061,PERUMAHAN JALAN NOVA U5/206,3.17303900,101.54488000
12001470,SA1062,SEK. KEB. SUBANG BESTARI (BARAT),3.17457000,101.54560000
12001471,SA716,S.M.K SUBANG BESTARI (OPP),3.17715200,101.54359000
12001472,SA1063,PERUMAHAN LAMAN PERMAI U5 (UTARA),3.17706400,101.54046000
12001473,SA701,PERUMAHAN NOVA U5/57,3.17707000,101.53834000
12001474,SA703,KOMERSIAL MUTIARA SUBANG (OPP),3.17865700,101.53580000
12001475,SA698,KOMERSIAL MUTIARA SUBANG,3.17863800,101.53588000
12001476,SA699,PASAR MALAM JLN UTARID (OPP),3.17721000,101.53633000
12001477,SA1064,PERUMAHAN LAMAN PERMAI U5 (SELATAN),3.17716900,101.54059600
12001478,SA717,S.M.K SUBANG BESTARI,3.17733600,101.54333500
12001479,SA1065,SEK. KEB. SUBANG BESTARI (TIMUR),3.17465800,101.54584000
12001480,SA1066,PERUMAHAN JALAN NOVA U5/91,3.17289300,101.54507000
12001481,SA685,TAMAN DESA SUBANG,3.17282100,101.53767000
12001482,SA1067,KOMERSIAL SUBANG PELANGI (UTARA),3.17280300,101.53552000
12001483,SA1068,KOMERSIAL SUBANG IMPIAN,3.17129400,101.53429000
12001484,SA686,PANGSAPURI SRI PELANGI,3.16903700,101.53431000
12001485,SA687,PANGSAPURI MERAK (OPP),3.16763600,101.53429000
12001506,KL881,(M1) TMN SHAMELIN,3.12378840,101.73908000
12001507,SL611,(M1) APARTMENT SRI PUTRA FASA 2,3.25426520,101.55615540
12001510,SL612,APARTMENT SERI MAWAR,3.25109700,101.55837000
12001512,SL608,SAUJANA AKASIA (OPP),3.24596000,101.56002000
12001513,KL2412,SMK SERI HARTAMAS (OPP),3.15707100,101.64762000
12001514,KL1883,PERUMAHAN,3.15966200,101.65143600
12001515,KL2411,1 MONT KIARA,3.16544500,101.65254000
12001516,KL2410,SHOPLEX MONT KIARA,3.16725500,101.65275600
12001517,KL2409,ARCORIS,3.16812500,101.65288000
12001518,KL2407,MONT KIARA BANYAN,3.17355900,101.65324400
12001519,KL2408,MONT KIARA INTERNATIONAL SCHOOL,3.17138600,101.65351000
12001520,KL2406,MONT KIARA MERIDIN (OPP),3.17403400,101.65398000
12001521,KL2404,SPG JLN SETIAJAYA,3.14657500,101.65582000
12001522,KL1885,PLAZA DAMAS,3.16328200,101.65643000
12001523,KL2403,SPG JLN SETIABISTARI,3.14632100,101.65694400
12001524,KL1891,LUMINA KIARA CONDOMINIUM (OPP),3.17425100,101.65724000
12001526,KL1887,WISMA KDN,3.16783600,101.66709000
12001527,KJ738,DEWAN TMN IMPIAN EHSAN (OPP),3.01103500,101.75407000
12001528,KJ766,DEWAN TMN IMPIAN EHSAN,3.01111900,101.75417000
12001529,KJ880,PADANG PERMAINAN,3.00561200,101.75529500
12001530,KJ860,KILANG PLASTIK EKSPEDISI EMAS (OPP),3.00638800,101.75535600
12001531,KJ877,PDG PERMAINAN (OPP),3.00567900,101.75540000
12001532,KJ881,KILANG PLASTIK EKSPEDISI EMAS,3.00651400,101.75548600
12001533,KJ883,SPG JLN ALPHA IMPIAN 3,3.00714200,101.75588000
12001534,KJ815,ONE INDUSTRIAL PARK,3.00754600,101.75590000
12001535,KJ879,SPG JLN KARUN MAS 3,3.00527600,101.75738500
12001536,KJ934,ALMASHOOR,2.92009400,101.75746000
12001537,KJ935,C BANNER PRINT,2.92129800,101.75805000
12001538,KJ878,(M1) FLAT TMN DESA KARUN MAS,3.00356770,101.75835680
12001539,KJ936,RIA TOMYAM,2.92285400,101.75896000
12001540,KJ424,KLINIK BANGI & SURGERY (OPP),2.92452000,101.75918600
12001541,KJ937,AKADEMI CUKAI,2.92637200,101.76066600
12001542,KJ938,LHDN BANGI,2.92975300,101.76395400
12001543,KJ681,BANGI GATEWAY (OPP),2.93407800,101.76515000
12001544,KJ941,PADANG  SPG 1/9C,2.94565700,101.76576000
12001545,KJ514,PERUMAHAN TERES SEKSYEN 16,2.94111000,101.76745000
12001546,KJ517,PETRONAS UNIKEB 1,2.94252000,101.76797500
12001547,KJ940,PASAR AWAM SEKSYEN 1,2.94448500,101.76881400
12001548,KJ939,PETRONAS PERSIARAN PEKELILING,2.93523700,101.76897400
12001549,KJ520,PERUMAHAN SEKSYEN 6,2.93817100,101.76946000
12001551,KJ933,WISMA UNIKEB,2.92702600,101.77350600
12001552,KJ924,FLAT JUBLI PERAK SEKSYEN 4,2.95552000,101.77617000
12001553,KJ423,SIMPANG PINTU MASUK UKM,2.92971000,101.77706000
12001554,KJ457,PINTU UTAMA UKM,2.93073440,101.77753400
12001555,KJ923,JLN 4/3,2.96074700,101.77810000
12001556,KJ925,SPG 4/8E (OPP),2.95204400,101.77863000
12001557,KJ919,SPG 4/8E,2.95190200,101.77865600
12001558,KJ920,JLN 4/2,2.95379000,101.77916000
12001559,KJ922,(M1) PETRONAS UNIKEB 2 (HUB),2.95788400,101.77920500
12001560,KJ918,SK JALAN EMPAT,2.95138400,101.77962000
12001561,KJ921,PANGSAPURI ANGGUN,2.95551200,101.77971000
12001562,KJ926,SK JLN EMPAT (OPP),2.95145900,101.77999000
12001563,KJ886,SMK JALAN EMPAT (PINTU BELAKANG),2.96015100,101.78153000
12001564,KJ930,SMK JALAN EMPAT (OPP),2.96177500,101.78159000
12001565,KJ931,ULINE TYRE,2.96437710,101.78163490
12001566,KJ927,JLN 4/9 C (OPP),2.95333500,101.78170000
12001567,KJ884,ULINE TYRE (OPP),2.96449430,101.78174180
12001568,KJ928,SPG JLN 4/7,2.95630100,101.78172000
12001569,KJ885,SMK JALAN EMPAT (PINTU DEPAN),2.96183000,101.78173000
12001570,KJ929,PERUMAHAN JLN 4/6,2.95877200,101.78176000
12001571,KJ917,JLN 4/9C,2.95310800,101.78181500
12001572,KJ916,SPG JLN 4/7M (OPP),2.95531500,101.78184500
12001573,KJ887,JALAN  4/9G,2.95818000,101.78185000
12001574,KJ728,PINTU BELAKANG UKM,2.93645050,101.78339000
12001575,KJ932,PINTU MASUK UKM,2.93657040,101.78375000
12001576,KJ459,REST UMI (OPP),2.94574700,101.78553000
12001577,KJ212,REST UMI,2.94566870,101.78579000
12001578,KJ460,KG SG TANGKAS,2.95048500,101.78778000
12001579,KJ211,KG SG TANGKAS,2.95012710,101.78789000
12001581,KJ209,PLAZA PERABOT (OPP),2.96093150,101.79235000
12001582,KJ516,(M1) PETRONAS SEKSYEN 16 (OPP),2.94448900,101.76552600
12001583,KJ208,SHELL (OPP),2.96392770,101.79134000
12001584,KJ215,(M2) REST NAMERA,2.93940540,101.78569000
12001585,KJ458,(M3) KEDAI TAYAR DUNLOP,2.93988320,101.78573600
12001587,KL882,TOYOTA SERVIS,3.12268300,101.73817000
12001588,AJ281,PERDANA COURT,3.12067800,101.74083000
12001589,AJ446,WARTA PERDANA,3.11981700,101.74167000
12001590,AJ282,PERDANA VILLA,3.11793600,101.74061600
12001591,AJ283,PANDAN PERDANA DELUXE,3.11641700,101.73973000
12001592,AJ284,PANDAN VISTA,3.11536400,101.73914000
12001593,AJ285,PANDAN HEIGHT,3.11315000,101.73849000
12001594,AJ286,PANDAN SAFARI,3.11421100,101.74087500
12001595,AJ287,SK PANDAN PERDANA (OPP),3.11603600,101.74174500
12001596,AJ288,7 ELEVEN,3.11999200,101.74346000
12001597,AJ289,TADIKA BAKTI NUSA,3.12446900,101.74231000
12001598,AJ290,WISMA DIRGAHAYU,3.12758600,101.74259000
12001599,AJ291,TERMINAL MAJU JAYA,3.12878900,101.74280000
12001600,AJ292,CALTEX,3.13022200,101.74290000
12001601,AJ447,LRT PANDAN JAYA,3.12945600,101.73951000
12001602,KL872,BSN,3.12762830,101.73617000
12001603,KL873,PGRM,3.12286900,101.72943000
12001604,KL874,AEON MALURI 1 (OPP),3.12506370,101.72671000
12001605,KL363,KONDO BRUNSFIELD,3.12801840,101.72146000
12001617,KL870,PGRM,3.12296370,101.72916400
12001618,KL871,BSN,3.12801100,101.73632000
12001619,AJ469,LRT PANDAN JAYA,3.12949600,101.73893000
12001620,AJ269,KEDAI NEWTON LEATHER,3.13044790,101.74298000
12001621,AJ270,REST NANYANG,3.12875000,101.74294000
12001622,AJ271,TADIKA BAKTI NUSA,3.12455130,101.74243000
12001623,AJ272,7 ELEVEN,3.12029030,101.74367500
12001624,AJ273,SK PANDAN PERDANA,3.11583900,101.74176000
12001625,AJ275,SPG SAFARI PARK,3.11424660,101.74106000
12001626,AJ276,PANDAN HEIGHT,3.11272240,101.73863000
12001627,AJ277,PANDAN VISTA,3.11518300,101.73894000
12001628,AJ278,PANDAN PERDANA DELUXE,3.11637800,101.73961000
12001629,AJ470,PERDANA VILLA,3.11805800,101.74058500
12001630,AJ279,PANDAN WARTA,3.11983300,101.74158500
12001631,AJ280,PANDAN COURT,3.12064200,101.74064000
12001632,KL880,PETRON,3.12285230,101.73794000
12001635,KJ509,GUDANG KTM,2.98597170,101.78985600
12001636,KJ511,KEDAI MOTOR SUZUKI (OPP),2.98082800,101.78990000
12001637,KJ216,PINTU MASUK UKM,2.93589540,101.78381000
12001638,KJ217,KOLEJ MAS,2.92718530,101.78911000
12001639,KJ219,DEWAN GEMILANG,2.93085270,101.78505000
12001640,KJ220,KOLEJ RAHIM KAJAI,2.93172600,101.78350000
12001641,KJ222,TUN HUSSEIN ONN,2.93017460,101.78120400
12001642,KJ223,FAKULTI SAINS. SOSIAL & KEMANUSIAAN. UKM,2.92870600,101.78071000
12001643,KJ224,PEJ MAHASISWA ANAK. UKM,2.92660800,101.78170000
12001644,KJ225,PERPUSTAKAAN TS LANANG,2.92599870,101.78253000
12001645,KJ226,FAKULTI EKONOMI & PENGURUSAN. UKM,2.92493900,101.78299000
12001646,KJ227,BGN SAINS KIMIA. UKM,2.92221100,101.78161000
12001647,KJ228,KOLEJ UNGKU OMAR. UKM (BARAT),2.92330300,101.77985400
12001648,KJ229,PUSAT KESIHATAN,2.92607260,101.77806000
12001649,KJ242,KAJIAN BAHASA,2.92604780,101.77573950
12001650,KJ243,FAKULTI KEJURUTERAAN,2.92302240,101.77355440
12001651,KJ232,(M1) KOLEJ ZAABA BLOK C,2.92003600,101.77508500
12001655,KJ230,MASJID,2.92862870,101.77730600
12001656,KJ727,PANGGUNG SENI UKM,2.93199400,101.77881000
12001657,KJ462,PLAZA PERABOT,2.96115200,101.79206000
12001658,KJ463,SHELL,2.96460060,101.79096000
12001659,KJ469,KUIL,2.98378100,101.78979500
12001660,KJ470,GUDANG KTM (OPP),2.98562220,101.78961000
12001661,KJ471,MAYBANK PEKAN KAJANG,2.99163000,101.78741000
12001672,KL1466,TM TTDI (UTARA),3.14581670,101.62192030
12001674,AJ54,(M1) HAB BANDAR BARU AMPANG,3.13935600,101.76952000
12001675,AJ56,AMPANG AVENUE,3.13550100,101.76935600
12001676,AJ129,SK AMPANG CAMPURAN,3.13407200,101.76730000
12001677,AJ130,FLAT BAYU MURNI,3.13355900,101.76594500
12001678,AJ157,PANDAN MEWAH HEIGHT,3.13091350,101.76217340
12001679,AJ158,FLAT PANDAN INDAH,3.13043250,101.76036800
12001680,AJ159,SURAU MADRASATUL SOFWA,3.12979800,101.75887000
12001681,AJ160,BUNGA RAYA APARTMEN,3.12920000,101.75717000
12001682,AJ233,PANDAN INDAH,3.12772900,101.75669000
12001683,AJ234,TAMAN LEMBAH MAJU (UTARA),3.12599800,101.75561000
12001684,AJ235,FLAT LEMBAH MAJU,3.12537200,101.75531000
12001685,AJ236,TAMAN LEMBAH MAJU (SELATAN),3.12367400,101.75524000
12001686,AJ237,SEKOLAH KEBANGSAAN TAMAN MUDA,3.12050600,101.75542400
12001687,AJ230,TAMAN MUDA (BARAT),3.11992000,101.75664000
12001688,AJ231,(M3) TAMAN MUDA (TIMUR),3.12014900,101.75918600
12001689,AJ242,TAMAN MAWAR,3.12135100,101.75979600
12001690,AJ249,PARAGON POINT (SELATAN),3.11983400,101.76329000
12001691,AJ254,TAMAN SERAYA (TIMUR),3.11545600,101.76324000
12001692,AJ255,TAMAN SERAYA (BARAT),3.11487300,101.76154000
12001693,AJ261,DATARAN MESTIKA,3.11382300,101.75580000
12001694,AJ263,GLENVIEW VILLA CONDOMINIUM,3.11093300,101.75377000
12001695,KL2316,KG CHERAS BARU (BARAT),3.10788000,101.74995400
12001696,KL2219,TAMAN SRI BAHTERA (BARAT),3.10684100,101.73775500
12001697,KL796,MADRASATUL ISLAMIAH,3.10621200,101.73601500
12001699,KL801,VELODROM BUSINESS PARK,3.11025100,101.72970600
12001701,KL798,MADRASATUL ISLAMIAH,3.10647200,101.73600000
12001702,KL2220,TAMAN SRI BAHTERA (TIMUR),3.10710100,101.73791500
12001703,KL2323,KG CHERAS BARU (TIMUR),3.10718100,101.74464000
12001705,KL2319,MASJID MADRASATUL AMALIAH,3.10691200,101.74803000
12001706,KL2317,KG CHERAS BARU (BARAT),3.10826300,101.75020600
12001707,AJ259,GLENVIEW VILLA CONDOMINIUM,3.11154600,101.75369000
12001708,AJ260,DATARAN MESTIKA,3.11329400,101.75498000
12001709,AJ265,TAMAN MUDA SELATAN,3.11444700,101.75876000
12001710,AJ427,TAMAN SERAYA (BARAT),3.11512600,101.76163500
12001711,AJ334,TAMAN SERAYA (TIMUR),3.11557300,101.76298500
12001712,AJ244,(M2) TAMAN SERAYA (UTARA),3.11636400,101.76355000
12001713,AJ335,TAMAN MELOR (BARAT),3.11835300,101.76323000
12001714,AJ246,PARAGON POINT (SELATAN),3.11980600,101.76305400
12001715,AJ428,PARAGON POINT (UTARA),3.12073800,101.76296000
12001724,AJ430,FLAT BAYU MURNI,3.13404800,101.76607500
12001725,AJ424,SEKOLAH KEBANGSAAN AMPANG CAMPURAN,3.13438400,101.76721000
12001726,AJ312,AMPANG AVENUE,3.13504500,101.76905000
12001727,AJ55,SMK BANDAR BARU AMPANG,3.13696900,101.76905000
12001728,AJ52,HAB BANDAR BARU AMPANG,3.13976100,101.76930000
12001730,KL800,RUMAH KANAK-KANAK TENGKU BUDRIAH,3.10848000,101.72901000
12001731,KL1983,HUKM,3.09938000,101.72307000
12001733,KL309,LRT SALAK SELATAN,3.10201600,101.70649000
12001734,KL310,JPJ SRI PERMAISURI,3.10296300,101.70863000
12001735,KL312,BAYU TASIK CONDOMINIUM,3.10437400,101.71132000
12001736,KL313,VILLA LAMAN TASIK,3.10408300,101.71216000
12001737,KL1684,(M1) QUEENSVILLE,3.10190500,101.71260000
12001738,KL337,DATARAN DWITASIK,3.09987800,101.71207400
12001739,KL1957,MENTARI CONDOMINIUM,3.09881900,101.71392000
12001740,KL1958,VISTA AMANI CONDOMINIUM (OPP),3.09640500,101.71528000
12001741,KL1981,SUASANA LUMAYAN CONDOMINIUM,3.09595900,101.71805000
12001742,KL335,WISMA ZELAN,3.09932700,101.71773000
12001743,KL1982,SEKOLAH MENENGAH SAINS SELANGOR,3.10238700,101.71978000
12001744,KL341,SEKOLAH KEBANGSAAN TAMAN MIDAH,3.09499300,101.72942000
12001745,KL2413,TESCO EXTRA CHERAS,3.09847000,101.73498000
12001747,SA641,KOMERSIAL SUBANG PERDANA,3.14857800,101.54838600
12001748,SA654,TAMAN SUBANG PERDANA (SELATAN),3.14953900,101.54342000
12001749,SA655,PEKAN BARU SUBANG,3.14510600,101.53793000
12001750,SA656,KG MELAYU SUBANG (SELATAN),3.14416700,101.53637000
12001751,SA657,KG BARU SUBANG (UTARA),3.14165300,101.53326400
12001752,SA658,SPG JALAN 2D. KG BARU SUBANG,3.13855600,101.52936600
12001753,SA753,(M2) PUSAT PERDAGANGAN SUBANG PERMAI,3.14046600,101.52545000
12001754,SA714,DESA SUBANG PERMAI,3.14621900,101.52523000
12001755,SA756,DENAI ALAM (TIMUR),3.15908400,101.51582000
12001756,SA757,E-BOULEVARD. DENAI ALAM,3.16307300,101.51199000
12001757,SA759,CENDANA APARTMEN. TAMAN BUKIT SUBANG,3.17329800,101.51215000
12001758,SA761,PANGSAPURI TERATAI. TAMAN BUKIT SUBANG,3.17228000,101.51545000
12001759,SA762,(M1) PANGSAPURI MELATI. TAMAN BUKIT SUBANG,3.17129700,101.51691000
12001760,SA763,TAMAN BUKIT SUBANG (TIMUR),3.16932200,101.51724000
12001761,SA764,PANGSAPURI LILI. TAMAN BUKIT SUBANG,3.16879600,101.51563000
12001762,SA775,E-BOULEVARD. DENAI ALAM,3.16333400,101.51272000
12001763,SA776,DENAI ALAM (TIMUR),3.15930100,101.51646000
12001764,SA750,DESA SUBANG PERMAI,3.14792300,101.52490000
12001765,SA751,PUSAT PERDAGANGAN SUBANG PERMAI,3.13938800,101.52575000
12001766,SA659,(M3) ECONSAVE PEKAN SUBANG (OPP),3.13878600,101.52924000
12001767,SA660,KG BARU SUBANG (UTARA),3.14258200,101.53292000
12001768,SA668,KG MELAYU SUBANG,3.14408100,101.53590400
12001769,SA669,PEKAN BARU SUBANG,3.14542700,101.53817000
12001771,KL1475,TTDI (TIMUR),3.14862800,101.62911700
12001772,KL1467,SMK TTDI,3.14594020,101.62281630
12001773,KL1468,PERUMAHAN TTDI,3.14652290,101.62557400
12001774,KL2414,SPG JLN ATHINAHAPAN 1,3.15173100,101.62792500
12001775,KL2415,SPG JLN ATHINAHAPAN 4,3.15077400,101.62590700
12001776,KL2416,SPG LORONG BURHANUDDIN HELMI 8,3.14921500,101.62357200
12001777,KL2417,(M1) PERUMAHAN BURHANUDDIN HELMI 2 (SELATAN),3.14959100,101.62049100
12001778,KL2418,PERUMAHAN BURHANUDDIN HELMI 2 (TIMUR),3.14677500,101.62019900
12001779,KJ953,TAMAN RIA,2.98894000,101.80853400
12001780,KJ954,TAMAN SRI JELOK,2.99126800,101.81048200
12001781,KJ955,KAFA AL-ASMAH,2.99448200,101.81276700
12001782,KJ956,PERUMAHAN TAMAN SRI JELOK,2.99440200,101.81369500
12001783,KJ957,PANGSAPURI PERDANA IMPIAN,2.99363100,101.81547200
12001784,KJ958,TTDI GROVE 2 @ LILI,2.99759900,101.81082900
12001785,KL1458,KOMERSIAL TUN FUAD (3),3.14209270,101.62782620
12001786,PJ395,MRT KOTA DAMANSARA PINTU A,3.15003910,101.57797590
12001787,PJ392,SM SRI KDU,3.14838020,101.57507420
12001789,SA1016,MRT KG SELAMAT PINTU B,3.19948900,101.57827750
12001790,KL2352,MRT TTDI PINTU B,3.13590380,101.63148140
12001791,KJ2341,MRT TTDI,3.13570550,101.63054240
12001792,KJ769,MRT BUKIT DUKUNG PINTU A,3.02651250,101.77135710
12001794,KJ510,MRT KAJANG PINTU A,2.98270220,101.79000970
12001795,KJ461,(M3) TERMINAL REKO,2.95717040,101.79196140
12001796,PJ814,MRT MUTIARA DAMANSARA PINTU C,3.15648710,101.60788610
12001797,KL2420,MRT PUSAT BANDAR DAMANSARA PINTU A,3.14391300,101.66348800
12001803,KJ822,MRT STADIUM KAJANG PINTU A,2.99431960,101.78599150
12001804,SA995,MRT SUNGAI BULOH,3.20639190,101.58119860
12001805,PJ387,MRT SURIAN PINTU A,3.14912080,101.59321430
12001806,KL2321,SURAU MANBAUL TAQWA,3.10640530,101.74624640
12001814,KL531,MASJID AL FIRDAUS (OPP),3.18802400,101.66917200
12001815,KL1861,SK SEGAMBUT (OPP),3.18711700,101.66840500
12001816,KL541,SMK SEGAMBUT (OPP),3.18676200,101.66723800
12001825,PJ117,EMPORIS KOTA DAMANSARA,3.15653500,101.57240200
12001826,KL1792,MRT TAMAN CONNAUGHT PINTU A,3.07878500,101.74606000
12001827,KJ566,BANDAR MAHKOTA CHERAS SEK 3,3.05998100,101.78884600
12001828,KL2424,DAMANLELA CARPARK,3.14906200,101.66250400
12001830,SL614,PUSAT KUSTA NEGARA,3.22095900,101.59030800
12001833,SA1057,BRP 4 PUTRA UTAMA,3.21712300,101.56085900
12001834,SA1058,BRP 4 PUTRA JATI,3.21446200,101.56181600
12001835,KL2369,PETRONAS TAMAN SEGAR (OPP),3.08638900,101.74290600
12001839,KJ5,PERDANA SQUARE,3.09224300,101.76185600
12001840,KJ6,PERDANA SQUARE,3.09217800,101.76210600
12001841,KJ4,TMN SEGAR PERDANA (UTARA),3.09404700,101.76093600
12001842,KJ46,TMN SEGAR PERDANA (UTARA),3.09433900,101.76096300
12001843,KJ2,CEMARA APARTMENT,3.09481600,101.75770500
12001844,AJ441,MERANTI APARTMENT (OPP),3.08656800,101.74719800
12001845,AJ155,SMK PANDAN MEWAH,3.12522500,101.76283100
12001846,AJ156,HOSPITAL AMPANG (OPP),3.12755100,101.76290100
12001847,AJ337,PANDAN MEWAH HEIGHT CONDOMINIUM,3.12907400,101.76295900
12001849,KJ565,DEWAN SEBAGUNA SEK. 8,3.06214600,101.79236400
12001850,KL2422,PERUMAHAN TAMAN MIDAH,3.09671900,101.73233000
12001851,KL2423,PANGSAPURI JASMINE,3.09807400,101.73361700
12001852,KL1791,MRT TAMAN CONNAUGHT PINTU B,3.07929600,101.74571100
12001855,KL2425,WISMA FIAMMA,3.19474500,101.63394000
12001856,KL2426,(M1) KEPONG VILLAGE MALL,3.19236800,101.63281000
12001857,KL2427,KAW. PUSAT BANDAR MANJALARA JLN 11,3.19385700,101.63228600
12001858,KL2428,KAW. PUSAT BANDAR MANJALARA,3.19539500,101.62964000
12001859,KL512,TAMAN MENJALARA (UTARA),3.19564300,101.62638000
12001860,KL2429,PUSAT KOMUNITI MENJALARA,3.19301300,101.62615000
12001861,KL514,MENARA MENJALARA,3.19047400,101.62781500
12001862,KL2430,VILLA MANJA,3.19053100,101.63169000
12001863,KL2431,TM KEPONG MENJALARA,3.19138200,101.63506000
12001864,KL1552,PERUMAHAN MENJALARA 62B,3.19193200,101.63870000
12001865,KL550,SK MENJALARA,3.19476400,101.63862000
12001866,PJ871,KOMERSIAL DAGANG SD2,3.20133500,101.62365000
12001867,KL513,PERUMAHAN MENJALARA 62&62C (OPP),3.19318800,101.62315000
12001868,KL2432,LEVENUE,3.18795000,101.62401600
12001869,KL2433,WATERFRONT PARKCITY,3.18786200,101.62738000
12001870,KL2434,NADIA PARKFRONT,3.18795100,101.63151000
12001875,KL2439,THE WESTSIDE CONDO,3.18417800,101.62462600
12001876,KL2440,ADORA PARKCITY,3.18627600,101.62504600
12001877,KL2441,LEVENUE (OPP),3.18776200,101.62401000
12001878,KL509,PERUMAHAN MENJALARA 62 & 62C,3.19287900,101.62280000
12001879,KL511,SEK. MEN. AGAMA K.L,3.19616200,101.62678500
12001880,SL541,BHP DESA JAYA,3.21682200,101.63045000
12001881,SL4,DESA JAYA (BARAT),3.21964300,101.62800600
12001882,SL5,PUSAT KOMUNITI TAMAN EHSAN,3.22073900,101.62633500
12001883,SL6,TAMAN EHSAN (TIMUR),3.22016600,101.62401000
12001884,SL7,TAMAN EHSAN (SELATAN),3.21841600,101.62159000
12001885,SL621,PERINDUSTRIAN EHSAN JAYA,3.21449200,101.62132000
12001886,SL622,BUKIT DESA UTAMA (SELATAN),3.21067300,101.61887000
12001887,SL623,SEK. KEB. DESA AMANPURI,3.21622700,101.61378000
12001888,SL624,APARTMENT DESA SATU,3.21415100,101.61497000
12001889,SL1,(M1) APARTMENT DESA DUA,3.21246300,101.61564000
12001890,SL2,DESA AMAN PURI (UTARA),3.21136900,101.61690500
12001891,SL545,DESA AMAN PURI (SELATAN),3.20867900,101.61519000
12001892,PJ16,FLAT SRI CEMARA,3.20583400,101.61767000
12001893,PJ637,PERUMAHAN MAHOGANI SD1/6,3.20602500,101.62018600
12001894,PJ9,KAFA INTEGRASI Al MUHAJIRIN (OPP),3.20710800,101.62188000
12001895,PJ638,S.K. BANDAR BARU SRI DAMANSARA (OPP),3.20728200,101.62478000
12001896,SL625,KOMERSIAL TAMAN EHSAN,3.22247000,101.62462600
12001897,SL10,S.M.K. TAMAN EHSAN,3.22343300,101.62266000
12001898,SL626,PERUMAHAN TAMAN EHSAN JLN E3/1,3.22198600,101.62018600
12001899,SL627,(M1) KAWASAN INDUSTRI TAMAN EHSAN,3.21908400,101.61951400
12001900,SL628,PADANG BOLA TAMAN EHSAN,3.21882200,101.62188000
12001901,SL629,PASAR MODEN TAMAN EHSAN,3.22090300,101.62478000
12001902,SL630,PERUMAHAN TAMAN EHSAN JLN E5/1,3.22297900,101.62766000
12001903,SL631,PERUMAHAN TAMAN EHSAN JLN E5/2 (OPP),3.22416900,101.63101000
12001904,SL632,KG KEPONG ULU,3.22454200,101.63317000
12001905,SL633,SMK KEPONG (OPP),3.22632400,101.63549000
12001906,KL2444,TAMAN WARISAN FRIM,3.22649800,101.63896000
12001907,KL1987,APARTMENT HIJAU RIA,3.22453600,101.63879000
12001908,SL464,FLAT TAMAN INDAH PERDANA,3.22110600,101.63759000
12001909,KL561,MASJID AMANIAH KEPONG,3.21348500,101.63518000
12001910,KL562,KOMPLEKS DESA JAYA (OPP),3.21308100,101.63308000
12001911,KL2445,PERUMAHAN KEPONG GARDEN,3.20975100,101.63273000
12001912,KL563,PEMADAM KAW. PARLIMEN KEPONG,3.20816400,101.63389000
12001913,KL2446,(M1) PERINDUSTRIAN TAMAN KEPONG,3.20548300,101.63596000
12001914,KL2447,KTM KEPONG,3.20302700,101.63840000
12001915,KL2448,WISMA CARITAS,3.20416900,101.64149500
12001916,KL2449,KEPONG B.C,3.20782500,101.64035000
12001917,KL559,PANGSAPURI MUTIARA MAGNA,3.21122500,101.64014000
12001918,KL452,AEON BIG KEPONG,3.21396800,101.64310000
12001919,KL2450,TAMAN PERMAINAN METRO PERDANA,3.21472400,101.64616000
12001920,KL2451,KAWASAN PERUSAHAAN METRO PERDANA,3.21670400,101.64797000
12001921,KL2452,KOMERSIAL METRO PERDANA,3.21826200,101.64674000
12001922,KL2453,KOMERSIAL FORTUNE PERDANA,3.21841100,101.64431000
12001923,KL2454,RESIDENSI FORTUNE PERDANA,3.21793700,101.64315000
12001924,KL2455,(M1) SRI EDARAN INDUSTRIAL PARK,3.21835600,101.64084000
12001925,KL2456,PPR PEKAN KEPONG BLOK C,3.21774100,101.63795000
12001926,KL2457,PPR PEKAN KEPONG BLOK B,3.21547600,101.63695000
12001927,KL2458,TAMAN USAHAWAN KEPONG,3.21798900,101.64304000
12001928,KL2459,RESIDENSI KEPONGMAS (OPP),3.22029900,101.64086000
12001929,SL522,TAMAN DAYA,3.22437400,101.63790000
12001930,SL16,FRIM,3.22790700,101.63771000
12001931,SL634,KUARTERS FRIM,3.23356900,101.64052600
12001932,SL523,S.K. SELAYANG UTAMA,3.23567700,101.64116000
12001933,SL635,PERUMAHAN SELAYANG UTAMA 50,3.23878600,101.64351000
12001934,SL516,SHELL TAMAN BIDARA,3.24145400,101.64415000
12001935,SL17,TAMAN BIDARA (UTARA),3.24355100,101.64316600
12001936,SL18,PANGSAPURI MERAK (OPP),3.24656800,101.64170000
12001937,SL313,CASA MILA,3.24906700,101.64036600
12001938,SL19,IPD GOMBAK,3.25144400,101.64127000
12001939,SL636,IDAMAN HILLS,3.25623400,101.64303000
12001940,SL529,ONE SIERRA,3.26259300,101.64599600
12001941,SL281,MAJLIS PEPERIKSAAN MALAYSIA,3.26082800,101.65285000
12001942,SL282,(M1) PEJ. JKR DAERAH GOMBAK (OPP),3.25550800,101.65489000
12001943,SL283,DATARAN BANDAR BARU SELAYANG,3.25569900,101.65710400
12001944,SL278,MAJLIS PEPERIKSAAN MALAYSIA (OPP),3.26083300,101.65262600
12001945,SL530,ONE SIERRA (OPP),3.26262000,101.64726000
12001946,SL637,PERDANA RESIDENCE,3.25736600,101.64368000
12001947,SL20,IPD GOMBAK (OPP),3.25096700,101.64135000
12001948,SL462,CASA VENICIA (OPP),3.24884500,101.64061000
12001949,SL21,PANGSAPURI MERAK,3.24642400,101.64220000
12001950,SL22,TAMAN BIDARA (UTARA),3.24325400,101.64358000
12001951,SL515,SURAU AL-FIRDAUS TMN BIDARA,3.24190100,101.64413500
12001952,SL638,KOMERSIAL SELAYANG UTAMA,3.23819200,101.64334000
12001953,SL517,TAMAN SELAYANG (BARAT),3.23558400,101.64140000
12001954,SL639,PARAGON UTAMA,3.23344400,101.64080000
12001955,SL518,TAMAN KEPONG INDAH,3.22787500,101.63797000
12001956,KL2460,RESIDENSI KEPONGMAS,3.22053800,101.64095000
12001957,KL490,PERUMAHAN JLN API KIRI 1,3.20770700,101.64521000
12001958,KL491,PERUMAHAN JLN API API,3.20631200,101.64385000
12001959,KL2462,PERUMAHAN JLN BIDARA,3.20424500,101.64327000
12001960,KL2463,PERUMAHAN JLN BANGAU,3.20190400,101.64284500
12001961,KL2464,PERSIMPANGAN JLN BUBUT,3.20047900,101.64179000
12001962,KL822,PERSIMPANGAN JLN PELANDUK,3.19852300,101.64458500
12001963,KL495,KOMERSIAL JLN HELANG BELALANG,3.19481300,101.64432000
12001964,KL1642,KOMERSIAL KEPONG BARU TAMBAHAN,3.19224900,101.64467000
12001965,KL2465,TAMAN KEPONG BARU TAMBAHAN,3.19026200,101.64472000
12001966,KL2466,S.K SERI KEPONG,3.18913100,101.64717000
12001967,KL500,TAMAN SRI SINAR (BARAT),3.18761400,101.65008500
12001968,KL501,(M1) BALAI POLIS SEGAMBUT,3.18645500,101.65180000
12001969,KL1639,PANGSAPURI ANGSA,3.18688500,101.65348000
12001970,KL547,S.K TAMAN SRI SINAR,3.18836700,101.65499000
12001971,KL548,PLAZA SINAR,3.18977100,101.65339000
12001972,KL2467,KONDOMINIUM MULBERI,3.19132500,101.64977000
12001973,KL1561,KAW. INDUSTRI KEPONG BARU,3.19528300,101.64418000
12001974,KL1717,PERUMAHAN JLN HELANG (TIMUR),3.19834400,101.64471000
12001975,KL2468,PERUMAHAN JLN HELANG (BARAT),3.19993700,101.64213000
12001976,KL2469,PERUMAHAN JLN BEBEREK,3.20201900,101.64277000
12001977,KL2470,PERUMAHAN PERS MERGASTUA,3.20369500,101.64369000
12001978,KL492,PERUMAHAN JLN ANTOI KIRI 1,3.20603600,101.64336400
12001979,KL488,PERUMAHAN JLN ANTOI KIRI,3.20774400,101.64506500
12001990,KL481,KOMERSIAL KEPONG USAHA,3.20841500,101.65269500
12001991,KL2476,TSI BUSINESS INDUSTRIAL PARK,3.20544600,101.65089000
12001992,KL2477,KAW. PERUSAHAAN KEPONG,3.20328800,101.65230600
12001993,KL1879,TAMAN PUSAT KEPONG,3.20117100,101.65502000
12001994,KL1877,TAMAN SRI SEGAMBUT,3.19937900,101.65522000
12001995,KL1041,KOMERSIAL SRI SEGAMBUT,3.19706500,101.65514000
12001996,KL1042,(M1) TAMAN SRI SEGAMBUT (SELATAN),3.19541900,101.65552500
12001997,KL1043,MASJID AL-QURTUBI,3.19463900,101.65671500
12001999,KL802,MARIAMMAN TEMPLE (OPP),3.19800700,101.65964500
12002000,KL2479,TAMAN PUSAT KEPONG (SELATAN),3.20021300,101.65867600
12002001,KL2480,TAMAN PUSAT KEPONG (UTARA),3.20290900,101.65755000
12002002,KL2481,DEPOH BAS MRT JINJANG,3.20569900,101.65665400
12002003,KL527,SMK RAJA ABDULLAH (OPP),3.20224100,101.66760000
12002004,KL528,(M1) SURAU MAHMUDIAH TMN SRI DELIMA,3.20039200,101.66701500
12002005,KL1855,KOMERSIAL TAMAN LAWA (OPP),3.19810200,101.66625000
12002006,KL1491,TAMAN KOK DOH,3.19476800,101.66537000
12002007,KL1857,TAMAN SEJAHTERA,3.19266200,101.66581000
12002008,KL1859,KOMERSIAL TAMAN SEJAHTERA,3.19264900,101.66757000
12002009,KL2483,KOMERSIAL TAMAN CITY,3.19568600,101.66868000
12002010,KL2484,KAWASAN REKREASI TMN SRI DELIMA,3.19780800,101.66773000
12002011,KL1869,TAMAN LAWA,3.19868100,101.66538000
12002012,KL2486,PERUMAHAN JINJANG SELATAN,3.20134100,101.66315500
12002013,KL1660,PADANG BOLA TAMAN BATU,3.20004400,101.66525000
12002014,KL526,SMK RAJA ABDULLAH,3.20179900,101.66732000
12002015,PJ848,KOMERSIAL SAUJANA DAMANSARA,3.19801600,101.59104000
12002016,PJ849,SEASONS SQUARE,3.19596100,101.59221000
12002017,PJ850,THE ZIZZ,3.19825400,101.59646000
12002018,PJ50,PLAZA PARK AVENUE,3.19252400,101.59327000
12002019,PJ851,APARTMENT SAUJANA,3.19059600,101.59420000
12002020,PJ852,DESA RIANG,3.18914100,101.59709000
12002021,PJ853,(M1) SUTERA SQUARE,3.18650500,101.59688600
12002022,PJ854,JAKOA DAMANSARA DAMAI,3.18916600,101.59698000
12002023,PJ855,APARTMENT INDAH,3.19035200,101.59431500
12002024,PJ55,RESIDENSI SUASANA DAMAI (OPP),3.19451100,101.59138000
12002025,PJ856,TERMINAL BAS WAN'S CENTRAL,3.19565600,101.59206400
12002026,PJ857,KOMERSIAL SAUJANA DAMANSARA (OPP),3.19793700,101.59089000
12002027,PJ858,MRT SRI DAMANSARA BARAT PINTU A,3.19787350,101.60824290
12002028,PJ859,ATIVO PLAZA,3.19596800,101.61624000
12002029,PJ39,SRI DAMANSARA COURTS,3.19247900,101.61553000
12002030,PJ40,MASJID AL-MUKARRAMAH,3.19148200,101.61336000
12002031,PJ41,PERUMAHAN SAGA SD 8,3.18843400,101.61154000
12002032,PJ645,APARTMENT PARADESA TROPIKA (OPP),3.18089600,101.60780000
12002033,PJ860,MERANTI 13 RESIDENCE,3.18486500,101.60307000
12002034,PJ647,SD APARTMENT 2,3.18766600,101.60312000
12002035,PJ28,(M1) PANGSAPURI SRI MERANTI,3.19145300,101.60319500
12002036,PJ31,KOMERSIAL BANDAR SRI DAMANSARA 12,3.19344100,101.60706000
12002037,PJ861,SRI BESTARI INTERNATIONAL SCHOOL (OPP),3.19294700,101.61067000
12002038,PJ862,MARGOSA RESIDENCY,3.18958500,101.60871000
12002039,PJ863,KOMERSIAL BANDAR SRI DAMANSARA,3.18838800,101.60548400
12002040,PJ864,SD APARTMENT,3.18970700,101.60538000
12002041,PJ865,AMANAH IKHTIAR MALAYSIA,3.19560800,101.60873400
12002042,PJ867,PERUMAHAN JATI SD 4,3.20129900,101.62329000
12002043,PJ640,FLAT SRI CEMARA (OPP),3.20573900,101.61734000
12002044,SL209,TAMAN WANGSA PERMAI,3.20830800,101.61141000
12002045,SL616,MAS KIPARK DAMANSARA,3.20701400,101.60865000
12002046,SL617,KOMERSIAL KIP,3.20707100,101.60689500
12002047,SL618,TAMAN PERINDUSTRIAN KIP,3.20558800,101.60532000
12002048,SL619,TAMAN PERINDUSTRIAN KIP 2,3.20283200,101.60472000
12002049,SL620,KAWASAN PERINDUSTRIAN TOGO,3.20257400,101.60998000
12002050,PJ868,(M1) PUSAT DAGANGAN SRI DAMANSARA (OPP),3.20130800,101.61263000
12002051,PJ869,PERINDUSTRIAN  SD5,3.20373300,101.61503000
12002052,PJ870,KOMERSIAL JALAN EMAS SD 5,3.20258100,101.61892000
12002053,PJ866,MRT SRI DAMANSARA SENTRAL PINTU A,3.19850890,101.62129840
12002054,KL1758,MRT SRI DAMANSARA TIMUR,3.20753600,101.62874900
12002055,KL938,MRT SRI DAMANSARA TIMUR,3.20956430,101.63061680
12002056,KL560,MRT METRO PRIMA PINTU B,3.21410800,101.63965700
12002057,KL451,MRT METRO PRIMA PINTU A,3.21439900,101.63927600
12002058,KL2461,MRT KEPONG BARU PINTU B,3.21037800,101.64801600
12002060,KL2475,MRT JINJANG PINTU B,3.20860990,101.65590630
12002061,KL2482,MRT SRI DELIMA PINTU B,3.20549300,101.66671600
12002063,SA1051,KOMERSIAL AMAN PUTRI (TIMUR),3.21643500,101.52304200
12002064,SA1052,PERUMAHAN AMAN SURIA (SELATAN),3.21480500,101.52411200
12002065,SA1040,(M1) KAWASAN REKREASI AMAN PUTRI,3.21229200,101.52252700
12002066,SA1053,PERUMAHAN AMAN SURIA (UTARA),3.21480700,101.52400300
12002067,SA1054,KOMERSIAL AMAN PUTRI (BARAT),3.21629800,101.52315200
12002068,PJ540,1POWERHOUSE,3.14501900,101.61767800
12002071,KL2488,MENARA MITI,3.17544900,101.66847900
12002072,SL 558,MASJID HOSPITAL SUNGAI BULOH,3.21900100,101.59691500
12002073,SL610,APARTMENT SERI MAWAR (OPP),3.25106500,101.55829700
12002074,SL609,TAMAN SRI PUTRA,3.24944400,101.55837500
12002075,SL613,KOMERSIAL SRI PUTRA,3.24928800,101.55821800
12002076,SL586,KOMERSIAL SAUJANA AKASIA,3.24593600,101.56032400
12002077,SL594,KAWASAN PERINDUSTRIAN PUTRA,3.23407000,101.56343300
12002078,SL597,KOMPLEKS KILANG DAIKIN,3.22873400,101.56587200
12002079,SL599,SIMPANG 4 JLN KUSTA (BARAT),3.22530900,101.56911400
12002080,SL607,SEK. KEB. SG. BULOH,3.21509200,101.57763300
12002081,SL563,SMK SIERRAMAS,3.21375500,101.57892500
12002082,SL564,STELLARS GROCER (OPP),3.21188600,101.57771700
12002083,SL577,LORONG MELOR. KG MELAYU,3.22419900,101.57429800
12002084,SL580,SIMPANG 4 JLN KUSTA (TIMUR),3.22518600,101.56915400
12002085,SL581,MEDAN SELERA KAW. INDUSTRI PUTRA,3.23443200,101.56312800
12002087,KL797,XIAO EN CENTER,3.10409960,101.73323220
12002173,SA1073,TAMAN TASIK BBSB,3.21563900,101.56331800
12002174,SA1074,DEWAN MERANTI,3.21927900,101.56351500
12002175,SL572,PERUMAHAN BRP 7,3.22919600,101.55853800
12002176,SL566,KG MELAYU BT 13 (1),3.21725400,101.57550500
12002177,SL567,KG MELAYU BT 13 (2),3.21943900,101.57355900
12002178,SL568,KG MELAYU BT 13 (3),3.22151900,101.57169600
12002179,SL569,KG MELAYU BT 13 (4),3.22415600,101.56931200
12002181,SA1003,PERUMAHAN 1D/1,3.21562400,101.56676400
12002182,SA1004,SURAU Al-IKHWAN,3.21360300,101.56825000
12002183,KL551,TAMAN BUKIT MALURI (SELATAN),3.19748800,101.63066700
12002184,KL552,KOMERSIAL TAMAN BUKIT MALURI,3.20019700,101.63278900
12002185,KL553,SMK TAMAN BUKIT MALURI (TIMUR),3.20249900,101.63516800
12002186,KL554,SMK TAMAN BUKIT MALURI (UTARA),3.20405300,101.63384700
12002187,KL556,TAMAN BUKIT MALURI (UTARA),3.20362600,101.63183700
12002188,KL557,TAMAN BUKIT MALURI (BARAT),3.20206300,101.63006200
12002189,KL558,SMKA KL (OPP),3.19851500,101.62762400
12002190,KL2435,PLAZA ARKADIA (FARADAY),3.18616500,101.63610100
12002191,KL2436,PLAZA ARKADIA (DAVIDSON),3.18756700,101.63564500
12002192,KL2487,(M1) THE BREEZEWAY,3.18462600,101.63259400
12002193,KL2437,SOUTHLAKE TERRACE,3.18476900,101.63042500
12002194,KL2438,ZENIA PARKHOME,3.18588700,101.62667900
12002195,KJ255,BANGI GATEWAY MALL,2.93387600,101.76532900
12002196,KJ945,LHDN BANGI (OPP),2.92969100,101.76426900
12002197,KJ946,KPTM BANGI,2.92611800,101.76031200
12002198,KJ425,KG TERAS JERNANG,2.92435300,101.75936700
12002199,KJ948,PERUMAHAN TERAS JERNANG,2.92079700,101.75791800
12002200,KJ950,KEDAI SERI MELATI,2.91845100,101.76011300
12002201,KJ952,WISMA UNIKEB (OPP),2.92713600,101.77312400
12002204,KL2495,MRT KENTONMEN PINTU A,3.19651000,101.68001600
12002205,KL601,TAMAN RAINBOW,3.19445600,101.67993000
12002206,KL602,TAMAN KAYA,3.19131800,101.68071000
12002207,KL1578,MRT JALAN IPOH PINTU B,3.18931100,101.68146500
12002208,KL603,SMK (P) JALAN IPOH (OPP),3.18804900,101.68197000
12002209,KL604,BATU COMPLEX BUSINESS CENTRE,3.18428300,101.68156400
12002210,KL605,TAMAN MILLION,3.18266800,101.68171000
12002211,KL536,MENARA TKSS,3.18246600,101.67673000
12002212,KL2489,KOMERSIAL TAMAN SEGAMBUT,3.18435800,101.67630000
12002213,KL2490,PERINDUSTRIAN SEGAMBUT (SELATAN),3.18591200,101.67528000
12002214,KL2491,(M1) PUSAT PERINDUSTRIAN BINOVA,3.18894800,101.67441600
12002215,KL2492,KOMPLEKS SENTRAL,3.19010400,101.67571000
12002216,KL2493,PERINDUSTRIAN SEGAMBUT (UTARA),3.19004100,101.67766600
12002217,KL2494,PERINDUSTRIAN SEGAMBUT (TIMUR),3.18700100,101.67761000
12002218,KL535,MENARA TKSS (OPP),3.18327700,101.67633000
12002219,KL581,BATU COMPLEX BUSINESS CENTRE,3.18387200,101.68107600
12002220,KL583,SMK (P) JALAN IPOH,3.18720200,101.68172000
12002221,KL584,KOMPLEKS MUTIARA,3.18896400,101.68092000
12002222,KL607,MRT SENTUL BARAT PINTU C,3.17910300,101.68487500
12002223,KL2496,THE TAMARIND (OPP),3.18169400,101.69103000
12002224,KL1591,PERUMAHAN AWAM SERI NEGERI SEMBILAN,3.18312500,101.69488000
12002225,KL648,LRT SENTUL TIMUR,3.18513800,101.69549000
12002226,KL1593,SKY MERIDIEN (OPP),3.18926500,101.69601400
12002227,KL2062,S.R.A IBNU HAJAR AL-ASQALANI,3.19125300,101.69591500
12002228,KL2497,TAMAN DATO SENU (SELATAN),3.19282800,101.69520600
12002229,KL2498,TAMAN DATO SENU,3.19400400,101.69404600
12002230,KL2499,SKY AWANI 5 RESIDENCE,3.19587300,101.69404000
12002231,KL1005,PADANG TAMAN DATO SENU,3.19489000,101.69575000
12002232,KL1009,MASJID RAUDHATUL MUTTAQIN,3.19127600,101.69636000
12002233,KL649,PANGSAPURI BLOK 83 B.B.S (OPP),3.18846000,101.69812000
12002234,KL2058,(M1) PANGSAPURI BLOK 77 B.B.S (OPP),3.18659700,101.69983000
12002235,KL650,SMK BANDAR BARU SENTUL,3.18445300,101.69871000
12002236,KL651,UTC SENTUL (OPP),3.18232900,101.69804400
12002237,KL2500,MASJID AMRU IBN AL'AS B.B.S,3.17991900,101.69813500
12002238,KL652,INSTITUT LATIHAN MAKPEM,3.17846100,101.69812000
12002239,KL663,LRT SENTUL,3.17828700,101.69570000
12002240,KL1595,PANGSAPURI BLOK 57 (OPP),3.18076900,101.69478600
12002241,KL2065,CAPERS SENTUL,3.18171600,101.69320000
12002242,KL2501,THE SAFFRON SENTUL,3.18128800,101.69008000
12002243,KL1580,MRT SENTUL BARAT PINTU B,3.17823800,101.68575000
12002244,KL580,RIVERCITY 3RD MILE,3.18007500,101.68304400
12002245,KL606,RIVERWALK VILLAGE (OPP),3.18007200,101.68353000
12002247,SJ91,BANGUNAN HUP WING,3.03565500,101.70505000
12002248,SJ101,SOUTH CITY PLAZA (SELATAN),3.02750600,101.71036000
12002249,SJ102,SOUTH CITY PLAZA,3.02906900,101.71017500
12002250,SJ777,KOMERSIAL SERDANG PERDANA 2,3.03106700,101.70901000
12002251,SJ778,(M1) EAST LAKE RESIDENCE,3.03346800,101.70760000
12002252,SJ103,FORTUNE PARK,3.03672500,101.70750000
12002253,SJ104,PANGSAPURI SERDANG PERDANA 5,3.04073600,101.70770000
12002254,SJ779,ONE SOUTH CONDO,3.04382600,101.70721400
12002255,SJ90,KOMERSIAL SERDANG RAYA 8 (OPP),3.04671200,101.70464000
12002257,SP405,SKYPARK CYBERJAYA,2.94825400,101.65435000
12002258,SP399,MKN EMBASSY TECHZONE (OPP),2.93669800,101.65607500
12002259,SP344,KOLEJ iCOOP,2.93035700,101.65433500
12002260,SP343,MASJID FISABILILLAH (OPP),2.93027900,101.64901000
12002261,SP18,MMU ENTRANCE A,2.93172800,101.64371000
12002262,SP400,McD EDUSPHERE,2.93395500,101.63693000
12002263,SP401,LAKEFRONT VILLA (OPP),2.93214900,101.63373600
12002264,SP402,LAKEPOINT RESIDENCE,2.92771100,101.63340000
12002265,SP431,SJK(C) UNION,2.92539600,101.63279000
12002266,SP403,MUTIARA VILLE RESIDENCE,2.92293200,101.63261000
12002267,SP380,GEM IN MALL,2.92165900,101.63512000
12002268,SP79,SK CYBERJAYA 1,2.91933300,101.63792400
12002269,SP404,CYBERIA CRESCENT 1,2.92109400,101.64165000
12002270,SP406,CRISTAL SERIN RESIDENCE,2.91946800,101.64579000
12002271,SP407,SERIN RESIDENCY,2.91569800,101.64570000
12002272,SP408,WISMA MUSTAPHA KAMAL (OPP),2.91615700,101.64798000
12002273,SP66,D'MELOR RESIDENCE (OPP),2.92056200,101.64673600
12002274,SP340,MMU ENTRANCE B (OPP),2.92256500,101.64324000
12002275,SP78,CYBERIA SMART HOMES (OPP),2.92234700,101.64081600
12002276,SP83,THE ARC CYBERJAYA,2.92514500,101.63750000
12002277,SP409,UNIVERSITY OF CYBERJAYA,2.93122300,101.63825000
12002278,SP19,MAJLIS PERBANDARAN SEPANG,2.93191500,101.64390000
12002279,SP342,MASJID FISABILILLAH,2.93048900,101.64724000
12002280,SP345,TELEKOM MALAYSIA (1),2.93068900,101.65416000
12002281,SP410,RADIUS,2.93522100,101.65580000
12002283,SP411,SKYPARK CYBERJAYA (OPP),2.94967400,101.65435000
12002284,SP29,LIMKOKWING UNIVERSITY (BARAT),2.93991300,101.66038000
12002285,SP412,DXN CYBERVILLE,2.94078700,101.65548000
12002286,SP346,KOLEJ UNIKOP (BARAT),2.92934100,101.65549000
12002287,SP24,WISMA SHELL (OPP),2.92723800,101.65485000
12002288,SP25,GLOMAC CYBERJAYA (BARAT),2.92547400,101.65555600
12002289,SP73,QUILL 3,2.92202400,101.65417000
12002290,SP75,CYBERJAYA TRANSPORT TERMINAL,2.92120500,101.65077000
12002291,SP377,TAMARIND SQUARE,2.92144300,101.63654000
12002292,SP378,AUTOVILLE CYBERJAYA,2.91998600,101.63232000
12002293,SP413,TAMAN PINGGIRAN CYBER,2.91657300,101.62827000
12002294,SP379,(M1) HOSPITAL CYBERJAYA,2.92003600,101.63193000
12002295,SP85,CYBERIA SMART HOMES,2.92262400,101.64056000
12002296,SP86,MMU ENTRANCE B,2.92289200,101.64281000
12002297,SP20,D'PULZE,2.92167100,101.65141000
12002298,SP21,QUILL 2,2.92227200,101.65398400
12002299,SP22,QUILL 18,2.92432300,101.65537000
12002300,SP23,WISMA SHELL,2.92713600,101.65463000
12002301,SP432,DXN CYBERVILLE (OPP),2.94065700,101.65584600
12002303,SP414,MRT CYBERJAYA CITY CENTRE,2.94086200,101.66487000
12002304,SP415,NTT MSC,2.92920200,101.65887000
12002305,SP34,COPLACE 13,2.92505400,101.65772200
12002306,SP51,COTTAGE WALK,2.92093100,101.65872000
12002307,SP52,TECH MAHINDRA,2.91556900,101.65761600
12002308,SP418,(M2) BOMBA CYBERJAYA (BARAT),2.91340300,101.65670000
12002309,SP59,IBU PEJABAT LHDN MALAYSIA,2.91098400,101.64965000
12002310,SP416,DXC TECHNOLOGY,2.90968000,101.64715600
12002311,SP417,KENWINGSTON BUSINESS CENTRE,2.91138300,101.63881000
12002316,SP424,APARTMENT PRIMA ONE,2.90027700,101.64194500
12002317,SP56,(M3) MAGIC CENTRE,2.90985600,101.65578500
12002318,SP422,PRIMA 9,2.91357500,101.65649400
12002319,SP68,MERCU MQA,2.91609200,101.65741000
12002320,SP425,CYBERSQUARE,2.91925300,101.65823000
12002321,SP69,PRIMA AVENUE,2.92089500,101.65841000
12002322,SP27,GLOMAC CYBERJAYA (TIMUR),2.92590800,101.65703600
12002324,SP426,KANVAS,2.91357500,101.65531000
12002325,SP395,PRIMERA SUITE,2.91911300,101.65514000
12002326,SP72,JPJ BAH. TEKNOLOGI DIGITAL,2.92074600,101.65547000
12002327,SP427,PLAZA CRYSTALVILLE,2.91828300,101.65121500
12002328,SP63,KOMERSIAL NEO CYBER,2.91704100,101.65024000
12002329,SP60,IBU PEJABAT LHDN  (BARAT),2.90982500,101.64925000
12002330,SP55,(M1) BALAI POLIS CYBERJAYA,2.90646500,101.65344000
12002331,SP57,BOMBA CYBERJAYA,2.91205100,101.65816500
12002332,SP42,SEKOLAH SERI PUTERI,2.90992900,101.66535000
12002333,SP43,PERDANA LAKEVIEW WEST,2.91529200,101.66880000
12002334,SP44,PERDANA LAKEVIEW EAST,2.91776400,101.66813000
12002335,SP45,CYBERVIEW GARDEN VILLA,2.92044700,101.66690000
12002336,SP46,SHAFTSBURY SQUARE,2.92349700,101.66331500
12002337,SP49,CENTURY SQUARE,2.92370900,101.66138000
12002338,SP50,MDEC,2.92333800,101.65953000
12002339,SP428,NTT MSC (OPP),2.92960100,101.65887000
12002340,SP28,LIMKOKWING UNIVERSITY,2.94125700,101.66333000
12002341,SP429,GARDEN PLAZA,2.94857200,101.66442000
12002342,SP430,CASSIA GARDEN RESIDENCE,2.94551000,101.66640500
12002343,SP33,LIMKOKWING UNIVERSITY (TIMUR),2.94174800,101.66331500
12002345,PPJ160,PERUMAHAN P9 FASA 7,2.93445100,101.67632200
12002346,PPJ161,PERUMAHAN P9 FASA 8 (SELATAN),2.93585900,101.67737400
12002347,PPJ162,PERUMAHAN P9 FASA 8 (UTARA),2.93717300,101.67836900
12002348,PPJ163,PERUMAHAN P9 FASA 10,2.93876600,101.67667300
12002349,PPJ93 ,PERUMAHAN RAJAWALI P9B,2.94235400,101.67284000
12002350,PPJ90 ,PERUMAHAN P9 FASA 5&6 (SELATAN),2.94429400,101.67580000
12002351,PPJ147,SK PUTRAJAYA P9 (1) (TIMUR),2.94295700,101.67948000
12002352,PPJ69 ,KOMPLEKS LANAI,2.94480100,101.68737000
12002353,PPJ70 ,PRESINT 10 (BARAT),2.94822600,101.68751000
12002354,PPJ71 ,KOMPLEKS SERI PERDANA (BARAT),2.95255900,101.68679000
12002355,PPJ130,PRESINT 11A5,2.95834900,101.68640000
12002356,PPJ131,PRESINT 11A2,2.95734200,101.68283000
12002357,PPJ132,(M1) APARTMENT PRESINT 11B,2.95719200,101.67678000
12002358,PPJ133,PERUMAHAN PRESINT 11H (OPP),2.95407400,101.67469000
12002359,PPJ134,KOMPLEKS SEKOLAH PUTRAJAYA PRESINT 11 (BARAT),2.94999300,101.67634000
12002360,PPJ135,PERUMAHAN PRESINT 11K,2.94816100,101.67703000
12002361,PPJ146,PERUMAHAN  P9G,2.94478200,101.67810000
12002362,PPJ91 ,PERUMAHAN P9 FASA 5&6 (SELATAN),2.94407800,101.67565000
12002363,PPJ92 ,PERUMAHAN TEMPUA P9B,2.94233900,101.67300000
12002364,PPJ151,PERUMAHAN P9 FASA 11,2.93906400,101.67652500
12002365,PPJ157,PERUMAHAN P9 FASA 8 (UTARA),2.93751900,101.67853500
12002366,PPJ158,PERUMAHAN P9 FASA 8 (SELATAN),2.93583300,101.67755400
12002367,PPJ159,PERUMAHAN P9 FASA 7,2.93432700,101.67646100
12002368,PPJ169,MACC (OPP),2.93335100,101.67558300
12002370,PPJ347,SUASANA PjH,2.92642700,101.68638800
12002371,PPJ348,PRESINT 2 (SELATAN),2.92358200,101.68612900
12002372,PPJ181,KOMPLEKS KPDNHEP,2.92129100,101.68731600
12002373,PPJ183,SK PUTRAJAYA PRESINT 18 (OPP),2.92411800,101.69410200
12002374,PPJ278,WISMA PUTRA 2 (UTARA),2.92420100,101.69125300
12002375,PPJ280,HENTIAN WISMA PUTRA,2.92607800,101.69060600
12002376,PPJ281,WISMA PUTRA 2 (SELATAN),2.92432600,101.69127800
12002377,PPJ184,KOMPLEKS TAMAN WARISAN,2.92704100,101.69967500
12002378,PPJ227,SK PUTRAJAYA PRESINT 16 (2),2.92836400,101.70016200
12002379,PPJ229,KOMERSIAL PRESINT 16,2.92967100,101.70105100
12002380,PPJ230,PRESINT 16E RESIDENCE,2.93261600,101.70354800
12002381,PPJ231,SURAU AR-RAHMAN PRESINT 16 (OPP),2.93288300,101.70690600
12002382,PPJ232,D'MUTIARA RESIDENCE,2.93455100,101.70815600
12002383,PPJ233,PPAM SADERI,2.93568500,101.70992400
12002384,PPJ234,(M1) ALAMANDA (SELATAN),2.94028500,101.71262800
12002385,PPJ276,KOMPLEKS PARCEL E (UTARA),2.94443600,101.70793400
12002386,PPJ187,KOMPLEKS PARCEL E (BARAT),2.94366500,101.70522900
12002387,PPJ188,DATARAN PAHLAWAN,2.94192600,101.70443100
12002388,PPJ189,KOMPLEKS KERAJAAN PARCEL D,2.93913800,101.70179500
12002389,PPJ236,KOMPLEKS TAMAN WARISAN,2.92712700,101.69992300
12002390,PPJ349,SK PUTRAJAYA PRESINT 18,2.92383300,101.69418500
12002391,PPJ180,MENARA KPDN,2.92092900,101.68754600
12002392,PPJ244,MONUMEN MILENIUM (SELATAN),2.92393400,101.68506500
12002393,PPJ245,JAMBATAN SERI WAWASAN P2,2.92657800,101.68516800
12002395,PPJ85 ,MACC,2.93291100,101.67593000
12002396,PPJ58 ,PERUMAHAN PENJAWAT AWAM P8 8R2 (BARAT),2.92947800,101.67998500
12002398,PPJ257,TAMARA RESIDENCE PRESINT 8,2.92619300,101.68064000
12002400,PPJ61 ,APARTMENT PRESINT 8 FASA 4C,2.92891100,101.67924500
12002401,PPJ62 ,SK PUTRAJAYA PRESINT 8 (2) (BARAT),2.93153600,101.68064000
12002402,PPJ383,TASKA PRESINT P8E,2.93408600,101.68231000
12002403,PPJ384,AURA RESIDENCE,2.93558800,101.68197000
12002404,PPJ64,(M1) AURA RESIDENCE P8 (BARAT),2.93692700,101.68026000
12002405,PPJ66 ,DEWAN SERBAGUNA PRESINT 8,2.93881900,101.68251000
12002407,PPJ68 ,KELAB TASIK PUTRAJAYA,2.93958500,101.68655400
12002408,PPJ148,SK PUTRAJAYA P9 (1) (TIMUR),2.94323600,101.67847000
12002409,PPJ149,KOMPLEKS SEKOLAH PUTRAJAYA PRESINT 9,2.94309200,101.67686500
12002410,PPJ165,MEDAN SELERA PRESINT 9,2.94126400,101.67489000
12002411,PPJ167,SK PUTRAJAYA PRESINT 9 (2),2.93781900,101.67332100
12002412,PPJ168,CENDERAWASIH P9A,2.93471500,101.67286500
12002413,PPJ88 ,APARTMENT PUTRA HARMONI (SELATAN),2.93682300,101.67271000
12002414,PPJ95 ,SRA PRESINT 9 (OPP),2.93892200,101.67333000
12002415,PPJ96 ,PUSAT PERNIAGAAN PRESINT 9E,2.94106100,101.67444000
12002416,PPJ97 ,KOMPLEKS SEKOLAH PUTRAJAYA PRESINT 9 (OPP),2.94309600,101.67646000
12002417,PPJ98 ,PERUMAHAN P9 FASA 5&6 (TIMUR),2.94521800,101.67789500
12002418,PPJ99 ,TASIK PRESINT 11,2.94787700,101.67681000
12002419,PPJ100,KOMPLEKS SEKOLAH PUTRAJAYA PRESINT 11 (OPP),2.94985800,101.67609000
12002420,PPJ101,PERUMAHAN PRESINT 11H,2.95400700,101.67445000
12002421,PPJ102,SAUJANA ASTER CONDOMINIUM,2.95626400,101.67370000
12002422,PPJ103,PERUMAHAN P11/1,2.95566500,101.66888400
12002423,PPJ104,PUSAT INTEGRASI GENIUS (OPP),2.95977900,101.66500000
12002424,PPJ105,PANGSAPURI PUTRA DAMAI,2.96203600,101.66492000
12002425,PPJ106,(M1) PRIMA PRESINT 11,2.96465600,101.66798400
12002426,PPJ111,PERUMAHAN PRESINT 11C (BARAT),2.96562700,101.67100000
12002427,PPJ112,PERUMAHAN PRESINT 11C (TIMUR),2.96779500,101.67598000
12002428,PPJ114,BALAI POLIS PRESINT 11 (OPP),2.96466200,101.67958000
12002429,PPJ266,PERUMAHAN PRESINT 11 (ZON 6B),2.95294600,101.67702500
12002431,SJ759 ,PERINDUSTRIAN SERDANG RAYA 7,3.04296500,101.70176000
12002435,SJ763 ,PERUMAHAN BS 9,3.03744000,101.69426000
12002438,SJ766 ,PANGSAPURI ORKID (OPP),3.04180400,101.68780000
12002439,SJ767,VILLA PARK CONDOMINIUM,3.04396000,101.68879000
12002441,SJ769,(M1) LAMAN SERDANG,3.04106200,101.68914000
12002442,SJ770 ,PERUMAHAN BUKIT SERDANG 10,3.03962900,101.68851000
12002443,SJ771 ,APARTMENT VISTA SERDANG,3.03757100,101.68979000
12002445,SJ773 ,KOMERSIAL BS 10,3.03898100,101.69675400
12002448,SJ776 ,SR COURT APARTMENT,3.04303200,101.70186000
12002450,KL2545,PUSAT PENGURUSAN PENGANGKUTAN (ITIS),3.04991900,101.70044900
12002451,KL1550,TECHNOLOGY PARK MALAYSIA,3.04790700,101.68912100
12002452,KL1293,ARENA GREEN APARTMENT,3.05386100,101.68827300
12002454,KL1787,(M1) ENDAH PARADE (SELATAN),3.06193400,101.69280900
12002455,KL1297,LRT SRI PETALING,3.06099900,101.68688600
12002456,KL1298,STADIUM BUKIT JALIL,3.05453500,101.68863600
12002457,KL2523,KOMPLEKS SUKAN NEGARA BUKIT JALIL,3.05298700,101.69274900
12002458,KL2524,SEKOLAH SUKAN BUKIT JALIL,3.05105800,101.69394000
12002459,KL2519,ASTRO,3.05018500,101.70050600
12002460,SJ93,MRT SERDANG RAYA SELATAN PINTU A,3.02823600,101.70756000
12002461,SJ95,FLAT SERDANG RAYA 1,3.02741400,101.70784000
12002462,SJ96,TOKONG FA YUAN SR1,3.02948400,101.70645000
12002463,SJ97,SERDANG RAYA,3.03090900,101.70578000
12002464,SJ780 ,PERINDUSTRIAN SERDANG RAYA 2,3.03231100,101.70431000
12002465,SJ781 ,PERSIMPANGAN SK 2/1,3.03191400,101.70145400
12002466,SJ782 ,SERDANG BARU CHURCH,3.02968800,101.70198000
12002467,SJ783 ,SJKC SERDANG BARU 1,3.02579600,101.69993000
12002468,SJ784,KANTAN COURT (OPP),3.02242200,101.69909000
12002469,SJ785 ,BAZAR RAKYAT SERI KEMBANGAN (OPP),3.01968800,101.70128000
12002470,SJ172,(M1) RUMAH SEJAHTERA SERI KEMBANGAN,3.01946600,101.70377000
12002471,SJ624 ,KG. BARU SERI KEMBANGAN,3.02155600,101.70492000
12002472,SJ177 ,PASAR SERI KEMBANGAN,3.02346400,101.70685000
12002473,SJ865,MRT PUTRA PERMAI PINTU B,2.98438300,101.66026000
12002488,SJ880,PERUMAHAN LEP 3,2.99201400,101.65717300
12002490,SP80,(M1) SMK CYBERJAYA,2.91903600,101.63994900
12002491,SP433,THE DOMAIN @ NEO CYBER,2.91623900,101.64824600
12002492,KL1218,MRT KUCHAI,3.08944900,101.69443000
12002493,KL1262,ILP KUALA LUMPUR (OPP),3.09155500,101.68718000
12002494,KL1263,SK SERI SETIA (OPP),3.09197700,101.68479000
12002495,KL1264,SMK SERI SENTOSA (OPP),3.09191800,101.68259000
12002496,KL2534,TAMAN LIAN HOE (OPP),3.09068200,101.67865500
12002497,KL1266,TAMAN GOODWOOD,3.09116500,101.67596400
12002498,KL1277,SCOTT GARDEN,3.09443400,101.67509500
12002499,KL1185,BALAI BOMBA TAMAN DESA,3.09682900,101.67749000
12002500,KL1201,PANGSAPURI TERATAK MUHIBBAH,3.09653800,101.68417000
12002501,KL1534 ,DANAU IDAMAN CONDO,3.09913700,101.68622600
12002502,KL2521,DANAU PERMAI CONDO,3.10096500,101.68764000
12002503,KL2522,DANAU VILLA,3.10264100,101.68899500
12002504,KL1194,SMK DESA PERDANA (OPP),3.10618900,101.68980400
12002505,KL1195,CHANGKAT DESA,3.10834300,101.68860000
12002506,KL1196,TAMAN BUKIT DESA (SELATAN),3.10861300,101.68552400
12002507,KL1197,(M1) DESARINA CONDO,3.10653300,101.68393000
12002508,KL1198,WISMA TM TAMAN DESA,3.10348700,101.68243400
12002509,KL1199,FABER HEIGHTS (OPP),3.10158100,101.68051000
12002510,KL1200,PERUMAHAN TAMAN DESA,3.09931800,101.67956500
12002511,KL2520,CASA DESA,3.09735200,101.67883000
12002512,KL1210,TAMAN DESA MEDICAL CENTRE,3.09643400,101.67770400
12002513,KL1750,SCOTT GARDEN (OPP),3.09538000,101.67570000
12002514,KL1212,PASAR BATU 41/2 JLN KLANG LAMA,3.09247700,101.67512000
12002515,KL1213,SJK(C) CHOONG WEN,3.09131500,101.67661000
12002516,KL1214,TAMAN LIEN HOE,3.09082100,101.67955000
12002517,KL1215,SMK SERI SENTOSA,3.09234500,101.68301000
12002518,KL1216,SK SERI SETIA,3.09225500,101.68445600
12002519,KL1217,ILP KUALA LUMPUR,3.09190300,101.68642400
12002520,KL1220,KOMERSIAL KUCHAI MAJU 14,3.08981900,101.68980000
12002521,KL1221,SRI DESA CONDOMINIUM (OPP),3.08617800,101.68975000
12002522,KL1222,KUCHAI BUSINESS PARK,3.08393200,101.68992600
12002523,KL1223,FLAT TAMAN GEMBIRA,3.08289900,101.68859000
12002524,KL2525,PERUMAHAN JIRAN,3.08285300,101.68337000
12002525,KL2526,APARTMENT ONE MESRARIA,3.08260300,101.68033600
12002526,KL1243,SK SERI MEGA,3.07758700,101.67065000
12002527,KL1245,(M1) TAMAN YARL (TIMUR),3.07537900,101.67071500
12002528,KL1246,TAMAN OUG (BARAT),3.07416800,101.67143000
12002529,KL2527,PERSIMPANGAN HUJAN EMAS 5,3.07624300,101.67619000
12002530,KL2150,PERUMAHAN HUJAN EMAS,3.07413400,101.67775000
12002531,KL2528,PERUMAHAN MANISAN,3.07199400,101.67965000
12002532,KL1240,ZON P1. BBSP,3.07251400,101.68242000
12002533,KL1742,ZON N. BBSP (UTARA),3.07405200,101.68202000
12002534,KL1241,PUSAT PENJAJA TAMAN GEMBIRA,3.07759300,101.68120000
12002535,KL2529,TAMAN SERANGKAI,3.07844700,101.68398000
12002536,KL1230,SERI GEMBIRA AVENUE,3.07929200,101.68598000
12002537,KL2530,GEMBIRA RESIDEN,3.08176400,101.68591000
12002538,KL1258,THE RIYANG HAPPY GARDEN,3.08312700,101.68844000
12002539,KL1259,SELESA APARTMENT,3.08403600,101.68967000
12002540,KL1260,SRI DESA CONDOMINIUM,3.08636500,101.68953000
12002541,KL1261,KUCHAI DYNASTY CENTRE,3.08976700,101.68961000
12002542,KL789,PLAZA SG BESI,3.08920900,101.69838000
12002543,KL2531,RESIDENSI VYNE,3.09107300,101.70016500
12002544,KL1812,MIDFIELDS SQUARE,3.09402300,101.70154600
12002545,KL1813,TAMAN SALAK JAYA (OPP),3.09589200,101.70254000
12002546,KL2532,MIDFIELDS 2 CONDO,3.09757700,101.70147000
12002547,KL794,KOMERSIAL TAMAN SG BESI,3.09365100,101.70001000
12002548,KL761,KLINIK KESIHATAN SALAK SELATAN,3.09105100,101.70201000
12002549,KL1739,DEWAN KG BARU SALAK SELATAN,3.08931400,101.70282000
12002550,KL1734,KG BARU SALAK SELATAN (TENGAH),3.08939700,101.70418000
12002551,KL1735,PASAR & PUSAT PENJAJA SALAK SELATAN,3.08971400,101.70633000
12002552,KL1736,KG BARU SALAK SELATAN (TIMUR),3.08742600,101.70849600
12002553,KL1493,KG BARU SALAK SELATAN (SELATAN),3.08676200,101.70632000
12002554,KL1492,(M1) DESA PETALING (UTARA),3.08683100,101.70383500
12002555,KL762,VANTAGE POINT (OPP),3.08593400,101.70141000
12002556,KL763,MEGAN SALAK PARK (OPP),3.08394200,101.70194000
12002557,KL2535,PLAZA PRIMA,3.09021300,101.67457600
12002558,KL1267 ,TAMAN SKYLINE,3.08900800,101.67433000
12002559,KL1268,PEARL SURIA,3.08656500,101.67383600
12002560,KL1269,KOMPLEKS BANDAR OUG,3.08348600,101.67110400
12002561,KL1250,(M1) PLAZA OUG,3.08214300,101.67071500
12002562,KL2536,TAMAN UNITED,3.08139200,101.67721000
12002563,KL1251,TAMAN GEMBIRA (SELATAN),3.08411200,101.68202000
12002564,KL1252,TAMAN GEMBIRA (UTARA),3.08596600,101.68190000
12002565,KL1254,TAMAN CONTINENTAL (TENGAH),3.08872300,101.68140000
12002566,KL1531,TAMAN CONTINENTAL (UTARA),3.09001700,101.68092000
12002567,SJ604,MRT TAMAN EQUINE  PINTU B,2.98973500,101.67232000
12002568,SJ205,AEON MALL TAMAN EQUINE,2.99327700,101.67409000
12002569,SJ208,KOMERSIAL LP 2A,2.99502200,101.67177600
12002570,SJ214,KOMERSIAL PUTRA PERMAI 1A,2.99642200,101.66965500
12002571,SJ839,PANGSAPURI SRI INDAH BLOK 11,2.99958600,101.66479000
12002572,SJ840,APARTMENT LESTARI PERDANA 7,3.00599900,101.66913600
12002573,SJ841,KINRARA UPTOWN LP 7,3.00839700,101.67042500
12002574,SJ842,LESTARI PERDANA 8,3.01180000,101.67181000
12002575,SJ843,PANGSAPURI CASA RIANA,3.01483100,101.67524000
12002576,SJ702,(M2) TAMAN PUNCAK JALIL PUJ 5,3.01788700,101.67483000
12002577,SJ844,PERUMAHAN PUJ 5,3.02109900,101.67419400
12002578,SJ845,PERUMAHAN PUJ 6 (BARAT),3.02312200,101.67497000
12002579,SJ846,PERUMAHAN PUJ 6 (TIMUR),3.02552200,101.67984000
12002580,SJ847,SMK BANDAR PUNCAK JALIL,3.02751900,101.67913000
12002581,SJ848,PERUMAHAN PUJ 7/8,3.02949000,101.67784000
12002582,SJ849,PERUMAHAN PUJ 7/2,3.03192300,101.67673500
12002583,SJ850,EMERALD HEIGHT PUJ 9 (OPP),3.03324700,101.68014000
12002584,SJ851,PANGSAPURI MAYANG,3.03637900,101.67957000
12002585,SJ852,SURAU NURUL IMAN PUJ 9,3.03774200,101.68115000
12002586,SJ853,PERUMAHAN PUJ 9/1,3.03123300,101.68075600
12002587,SJ854,PERUMAHAN PUJ 2,3.02440500,101.67914600
12002588,SJ855,KOMERSIAL PUJ 3 (UTARA),3.02294700,101.67526000
12002589,SJ856,KOMERSIAL PUJ 3 (BARAT),3.01997900,101.67479300
12002590,SJ703,(M3) TAMAN PUNCAK JALIL,3.01772800,101.67513000
12002591,SJ858,SJKC BUKIT SERDANG,3.01159900,101.67264600
12002592,SJ859,LESTARI MANSIONS LP 6,3.00810040,101.67072050
12002593,SJ860,LESTARI PERDANA 5,3.00578000,101.66935000
12002594,SJ861,KOMERSIAL LP 3,2.99949700,101.66509000
12002595,SJ862,PERUMAHAN LP 2,2.99719300,101.66505000
12002596,SJ863,VILLA PERDANA,2.98806200,101.66440000
12002597,SJ864,PUSAT BANDAR PUTRA PERMAI,2.98582900,101.66445000
12002598,KL2533,MIDFIELDS SQUARE,3.09579000,101.69976000
12002599,SJ857,PERUMAHAN PUJ 2,3.01532800,101.67544500
12002600,SJ794,MRT UPM PINTU A,3.00863200,101.70636000
12002601,SJ186,S.K. TAMAN UNIVERSITI,3.00499200,101.69055000
12002602,SJ795,S.R.A. TAMAN UNIVERSITI INDAH,3.00754400,101.68934000
12002603,SJ796,PERSIMPANGAN INDAH 1/15,3.01042400,101.68946000
12002604,SJ797,APARTMENT EXCELSA,3.01155000,101.69179000
12002605,SJ798,PERUMAHAN INDAH 1/3,3.00921500,101.69269000
12002606,SJ188,TAMAN UNIVERSITI INDAH (TIMUR),3.00832400,101.69321400
12002607,SJ799,(M1) OLIVE HILL BUSINESS PARK,3.01388300,101.69724000
12002608,SJ800,PANGSAPURI SERI PINANG,3.01601400,101.69663000
12002609,SJ801,PERSIMPANGAN BS 6/16 (OPP),3.01893500,101.69668000
12002610,SJ802,PERSIMPANGAN BS 6/9,3.02124600,101.69661000
12002611,SJ803,FLAT TAMAN BUKIT SERDANG,3.02208900,101.69502000
12002612,SJ804,PERUMAHAN BUKIT SERDANG 5,3.02178200,101.69294000
12002613,SJ805,SPORTS ARENA BUKIT SERDANG,3.02400000,101.69253500
12002614,SJ806,AMAN HEIGHTS CONDOMINIUM,3.02592600,101.69259000
12002615,SJ807,CAHAYA VILLA,3.02800200,101.69269000
12002616,SJ808,PERUMAHAN BUKIT SERDANG 5,3.02813500,101.69515000
12002617,SJ809,PERSIMPANGAN BS 5/2,3.02527700,101.69639000
12002618,SJ810,KOMERSIAL TAMAN BUKIT SERDANG,3.02333100,101.69632000
12002619,SJ811,PERSIMPANGAN BS 6/9,3.02156100,101.69672400
12002620,SJ812,PERSIMPANGAN BS 6/16,3.01884100,101.69677000
12002621,SJ813,PANGSAPURI SERI PINANG (OPP),3.01602300,101.69675400
12002622,SJ814,SJ814 PUSAT PERDAGANGAN SERI KEMBANGAN,3.01372300,101.69742600
12002623,SJ815,KUIL SRI MAHA KALIAMMAN,3.01390900,101.71097600
12002624,SJ816,KOMERSIAL SERDANG JAYA,3.01938200,101.71194000
12002625,SJ817,UNIV360 PLACE,3.02052400,101.71419500
12002626,SJ818,KAWASAN INDUSTRI SRI SERDANG,3.01777100,101.71689600
12002627,SJ819,TAMAN SRI SERDANG FASA IV,3.01516900,101.71877000
12002628,SJ820,FAKULTI KEJURUTERAAN PINTU A,3.00416800,101.71873500
12002629,SJ171,(M1) KOLEJ KEDIAMAN 11 UPM,3.00866300,101.72011600
12002630,SJ120,SK SRI SERDANG (OPP),3.01291600,101.71837600
12002631,SJ124,SMK SERI INDAH (OPP),3.01172380,101.71661090
12002632,SJ123,KOMERSIAL TAMAN SRI SERDANG,3.00971360,101.71538610
12002633,SJ111,SMK SERI SERDANG (OPP),3.00683970,101.71524680
12002634,SJ112,TASIK SERI SERDANG (OPP),3.00422800,101.71512000
12002635,SJ821,PERUMAHAN SRI SERDANG JLN 18/11,3.00348300,101.71295000
12002636,SJ822,FLAT SRI SERDANG BLOK 4 (FLAT IKAN),3.00431100,101.71145000
12002637,SJ823,KAFA INTEGRASI MANBAUL 'ULUM,3.00684000,101.70996000
12002638,SJ151,FAKULTI PENGAJIAN ALAM SEKITAR,3.00425200,101.70863000
12002639,SJ153,CENTRAL PARKING UPM,3.00129600,101.70969400
12002640,SJ154 ,DEWAN KOMPLEKS AKADEMIK PUSAT,3.00022000,101.71104400
12002641,SJ824,KOLEJ CANSELOR,2.99524400,101.70878600
12002642,SJ825,KOLEJ TUN DR ISMAIL,2.99353300,101.70727500
12002643,SJ161 ,PUSAT KESIHATAN UNIVERSITI,2.99138900,101.70769000
12002644,SJ162,KOLEJ TIGA BELAS,2.99057300,101.71074000
12002645,SJ163,KOLEJ SERUMPUN FOODCOURT,2.99209900,101.71541600
12002646,SJ826,MTDC,2.99236800,101.71854000
12002647,SJ827,DEWAN BANKUET UPM,2.98783300,101.72504000
12002648,SJ828,FARM FRESH @ UPM,2.98845000,101.73052800
12002649,SJ829,ASTANA PUTRA UPM,2.98421600,101.73182000
12002650,SJ882,KAFETERIA FAKULTI PERTANIAN,2.98362000,101.73592000
12002651,SJ830,(M1) FAKULTI PERTANIAN,2.98316300,101.73395600
12002652,SJ831,PUSAT SUKAN UPM,2.98743500,101.72593000
12002653,SJ164,KOLEJ 14,2.99285400,101.71826000
12002654,SJ832,INSTITUT BIOSAINS,2.99976000,101.72159600
12002655,SJ144,FAKULTI BAHASA MODEN & KOMUNIKASI,2.99997700,101.71484000
12002656,SJ155,FAKULTI SAINS KOMPUTER & TEKNOLOGI MAKLUMAT,2.99997400,101.71106000
12002657,SJ159,FAKULTI SAINS,3.00058700,101.70688000
12002658,SJ160,PERPUSTAKAAN SULTAN ABDUL SAMAD,3.00268600,101.70695000
12002659,KL2502,PERCETAKAN NASIONAL (BARAT),3.12560200,101.71226300
12002660,KL2512,SOUTHGATE COMMERCIAL CENTRE,3.12416300,101.71080000
12002661,KL2503,BALAI POLIS PUDU,3.13166900,101.71643000
12002662,KL1770,BALAI BOMBA PUDU,3.13379500,101.71377600
12002663,KL2504,LRT PUDU (OPP),3.13354400,101.71216600
12002664,KL2216,(M1) SJK(T) JALAN SAN PENG,3.13408700,101.70919000
12002665,KL2505,KENANGA POINT CONDOMINIUM,3.13538100,101.70805000
12002666,KL2542,KOMERSIAL KENANGA,3.13672000,101.70722000
12002667,KL2506,BALAI BOMBA HANG TUAH,3.13805200,101.70530000
12002668,KL2507,KLINIK KOMUNITI HANG TUAH,3.13769000,101.70453000
12002669,KL1780,PERUMAHAN AWAM DBKL,3.13617800,101.70453000
12002670,KL2508,SUB STOR JAB. KESIHATAN DBKL,3.13424400,101.70715000
12002671,KL2232,BALAI POLIS KENANGA,3.13433200,101.70878000
12002672,KL2509,LRT PUDU,3.13374800,101.71222000
12002673,KL1768,KOMERSIAL PUDU,3.13071000,101.71225000
12002674,KL2200,PERCETAKAN NASIONAL (OPP),3.12458500,101.71404000
12002675,KL2513,DAMAI RESIDENCE,3.11578700,101.70797000
12002676,KL2514,(M1) RAZAK MANSION,3.10668500,101.70340400
12002677,KL2549,RAZAK CITY RESIDENCES (BLOCK A),3.10700200,101.70561100
12002678,KL2515,KOMERSIAL BATU 3 1/2 SG BESI,3.11048300,101.70800000
12002679,KL2516,KAWASAN PERINDUSTRIAN TRISEGI,3.11143500,101.71072400
12002680,KL2517,THE CHINA PRESS,3.11531400,101.71301000
12002681,KL2518,WISMA TRAX,3.11781400,101.71010000
12002682,KL2537,MRT TAMAN NAGA EMAS,3.07741800,101.69952500
12002683,KL2538,FLAT SALAK SOUTH,3.08182800,101.69577000
12002684,KL1528,TAMAN SALAK SELATAN (TIMUR),3.07853200,101.69483000
12002685,KL1529,APARTMENT VILLA MEWAH,3.07522800,101.69278000
12002686,KL1530,TAMAN SALAK SELATAN (SELATAN),3.07445600,101.69388600
12002687,KL2539,CANAAN CHURCH,3.07220300,101.69585000
12002688,KL1308,SRI PETALING (TIMUR),3.06764900,101.70077000
12002689,KL1310,ENDAH RIA CONDO,3.06421600,101.69961500
12002690,KL1311,ENDAH PROMENADE CONDO,3.06401500,101.69740000
12002691,KL1312,ENDAH PARADE,3.06383100,101.69540000
12002692,KL1324,KOMERSIAL BANDAR BARU SRI PETALING (OPP),3.06658500,101.69276000
12002693,KL2030,8 PETALING CONDO,3.06658900,101.69079600
12002694,KL1327,SMK BANDAR BARU SERI PETALING,3.06659400,101.68830000
12002695,KL1328,BANDAR BARU SRI PETALING (BARAT),3.06712700,101.68615000
12002696,KL1300,SMK SERI SAUJANA,3.06834500,101.68491000
12002697,KL2540,(M1) PERUMAHAN ZONE N 149K (UTARA),3.07033000,101.68582000
12002698,KL1301,PERUMAHAN ZONE N 149K (SELATAN),3.07241900,101.68742000
12002699,KL1302,PERUMAHAN 149J (OPP),3.07232500,101.68966000
12002700,KL1303,KOMERSIAL RADIN ANUM,3.07164300,101.69189500
12002701,KL2541,PERUMAHAN MERAH SILU,3.07190100,101.69730000
12002702,KL785,TAMAN CASTLEFIELD  (UTARA),3.06945200,101.70554000
12002703,KL786,TAMAN CASTLEFIELD,3.07279600,101.70419000
12002704,KL787,PUSAT INDUSTRI CAPITAL,3.07689800,101.70455000
12002705,KL795,KOMERSIAL TAMAN SALAK SELATAN,3.08374900,101.69738300
12002706,KL777,KG. MALAYSIA TAMBAHAN,3.07750900,101.70482300
12002707,KL778,KG. MALAYSIA RAYA,3.07473300,101.70390000
12002708,KL779,(M1) TERMINAL BERSEPADU SELATAN (TBS),3.07733600,101.71149400
12002709,KL780,TAMAN CASTLEFIELD  (SELATAN),3.06913200,101.70602000
12002710,KL2543,S.R.A AL-SYAKIRIN (OPP),3.06515600,101.71207400
12002711,KL144,FLAT DESA TASIK FASA 6A (BLOK 2),3.06750900,101.71387000
12002712,KL145,APARTMENT DESA TASIK FASA 1A,3.06989500,101.71570000
12002713,KL146,KOMERSIAL DESA TASIK (UTARA),3.07221300,101.71494000
12002714,KL147,PERUMAHAN TASIK SELATAN 16,3.07374500,101.71370000
12002715,KL148,PERUMAHAN TASIK SELATAN 29,3.07458900,101.71635400
12002716,KL2003,TASIK HEIGHTS APARTMENT (OPP),3.07547400,101.71795000
12002717,KL2544,KOMERSIAL BANDAR TASIK SELATAN,3.07294500,101.71075000
12002718,KL670,(M1) S.K DESA TASIK,3.07201800,101.71339000
12002719,KL139,KOMERSIAL DESA TASIK (SELATAN),3.07207100,101.71519500
12002720,KL140,PERUMAHAN PDRM DESA TASIK (PINTU 2),3.06931400,101.71555000
12002721,KL141,PERUMAHAN PDRM DESA TASIK (PINTU 1),3.06684700,101.71347000
12002722,KL142,BOMBA SG. BESI,3.06457900,101.71154000
12002723,SJ758,PUSAT HEMODIALISIS SERDANG RAYA,3.04123800,101.70208000
12002725,SJ760,PERINDUSTRIAN BUKIT SERDANG (BARAT),3.04030800,101.70087400
12002726,SJ761,MEGARIA APARTMENT,3.03579800,101.69954000
12002727,SJ762,32 AVENUE BUKIT SERDANG,3.03807500,101.69782000
12002729,SJ764,APARTMENT VISTA SERDANG (OPP),3.03745000,101.69024000
12002730,SJ765,PERUMAHAN BS 11,3.03939300,101.68844600
12002733,SJ768,THE SANDERSON,3.04241800,101.69050000
12002737,SJ772,PERUMAHAN BS 10,3.03757600,101.69437000
12002739,SJ774,PERINDUSTRIAN BUKIT SERDANG (TIMUR),3.04043400,101.69788000
12002740,SJ775,FLAT BUKIT SERDANG,3.04221700,101.69860000
12002742,SJ100,KOMERSIAL SERDANG RAYA 8,3.04677700,101.70449000
12002743,KL151,LRT BUKIT JALIL (OPP),3.05851700,101.69151000
12002744,SJ624,KG. BARU SERI KEMBANGAN,3.02155600,101.70492000
12002745,SJ177,PASAR SERI KEMBANGAN,3.02346400,101.70685000
12002746,SJ640,THE MINES,3.02706200,101.71894000
12002747,SJ787,KOMERSIAL TAMAN SG. BESI INDAH,3.02853300,101.72148000
12002748,SJ89,FLAT LAMA SUNGAI BESI INDAH (OPP),3.03131200,101.72315000
12002749,SJ788,PERUMAHAN SB INDAH 1 (OPP),3.03132100,101.72570000
12002750,SJ789,PUSAT KOMUNITI RAKYAT (JKP ZON 24),3.02966000,101.72828000
12002751,KJ975,PANGSAPURI CEMPAKA,3.02908500,101.73014000
12002752,KJ390,KOMERSIAL BUKIT BELIMBING,3.02834300,101.73266000
12002753,KJ976,FLAT TMN HARMONI INDAH,3.02636500,101.73360000
12002754,KJ672,TAMAN TAMING JAYA,3.02624700,101.73836000
12002755,KJ700,(M1) SHELL TAMING JAYA,3.02529900,101.73540500
12002756,KJ701,JUTA MINES CONDOMINIUM,3.02433600,101.73034000
12002757,SJ597,S.K. TAMAN SG BESI INDAH,3.02656500,101.72397600
12002758,SJ598,THE MINES (OPP),3.02662100,101.71962000
12002759,SJ790,KLINIK KESIHATAN SRI KEMBANGAN,3.02696800,101.71140600
12002760,SJ791,TAMAN MUHIBBAH (SELATAN),3.02447800,101.71311000
12002761,SJ792,FLAT TAMAN MUHIBBAH BLOK A,3.02261200,101.71472000
12002762,SJ793,TAMAN MUHIBBAH (UTARA),3.02473000,101.71261600
12002763,SJ108,SOUTH CITY PLAZA (OPP),3.02716400,101.71034000
12002764,SJ833,PASAR BORONG SELANGOR,2.98358800,101.66785000
12002765,SJ834,PUSAT BANDAR PUTRA PERMAI (UTARA),2.98190500,101.66633600
12002766,SJ835,PUSAT BANDAR PUTRA PERMAI (SELATAN),2.98059500,101.66470000
12002767,SJ836,PANGSAPURI SURIA PERMAI,2.98066400,101.66737000
12002768,SJ197,(M1) PERUMAHAN BPP 4 (OPP),2.98307900,101.67321000
12002769,SJ837,PANGSAPURI PUTRA BLOK D,2.98456900,101.67427000
12002770,SJ838,PANGSAPURI PUTRA IMPIAN,2.98737300,101.67428600
12002771,SJ198,KOMERSIAL PUTRA WALK,2.99021400,101.67654000
12002772,SJ199,VISTA PINGGIRAN APARTMENT,2.99186400,101.67789500
12002773,SJ200,RUSELIA APARTMENT,2.99378300,101.67851000
12002774,SJ866,TAMAN KOTA PERDANA (TIMUR),2.98834000,101.66311000
12002775,SJ867,TAMAN KOTA PERDANA (UTARA),2.98903300,101.66223000
12002776,SJ868,TAMAN KOTA PERDANA (BARAT),2.98906900,101.66093400
12002777,SJ869,TAMAN KOTA PERDANA 3,2.99011600,101.65942400
12002778,SJ870,PERUMAHAN LEP 1/4,2.99221200,101.65588000
12002779,SJ871,PARAGON 202,2.99369300,101.65224500
12002780,SJ872,PARAGON 3 CONDO,2.99435600,101.65008500
12002781,SJ873,(M1) PANGSAPURI SERI ANGSANA,2.99497700,101.64809000
12002782,SJ874,TAMAN LEP 7,2.99783900,101.64859000
12002783,SJ875,SURAU AL-MUSTAQIM LEP 7,3.00238800,101.64890000
12002784,SJ876,SURAU SABAS LEP 4,3.00128300,101.65273000
12002785,SJ877,PERUMAHAN LEP 4/15,3.00006000,101.65510000
12002786,SJ878,TAMAN LEP 5 (SELATAN),2.99568900,101.65271000
12002787,SJ879,PERUMAHAN LEP 1/11,2.99373000,101.65289000
12002789,SJ881,TAMAN KOTA PERDANA 3 (OPP),2.98996500,101.65967000
12002792,SP397,KOLEJ ICOOP (TIMUR),2.92965200,101.65534000
12002794,SP419,MASJID CYBERJAYA 10,2.90033600,101.63143400
12002795,SP421,MULIA RESIDENCES,2.90331400,101.63754000
12002796,SP423,KOMPLEKS KEDIAMAN KAKITANGAN AWAM CYBERJAYA,2.90378500,101.64237000
12002798,PPJ89,PANGSAPURI PUTRA HARMONI P9,2.93914000,101.67175700
12002799,PPJ83,MENARA PJH,2.92770600,101.68674500
12002800,PPJ49,KEMENTERIAN KEWANGAN,2.92754700,101.68871000
12002801,PPJ50,PERBENDAHARAAN 2 (SELATAN),2.92532700,101.68796000
12002802,PPJ51,LEMBAGA PEMBIAYAAN PERUMAHAN (SELATAN),2.92321700,101.68723000
12002803,PPJ52,MENARA USAHAWAN,2.92085600,101.68642000
12002804,PPJ53,ISTANA KEHAKIMAN (UTARA),2.91837800,101.68560000
12002805,PPJ54,ISTANA KEHAKIMAN (SELATAN),2.91647300,101.68497000
12002806,PPJ55,KEMENTERIAN BELIA & SUKAN,2.91414400,101.68424000
12002807,PPJ376,GALERIA PJH,2.91105700,101.68330400
12002808,PPJ56,MOTOCROSS CIRCUIT (TIMUR),2.90981600,101.68277000
12002809,PJ33,KEMENTERIAN PEMBANGUNAN LUAR BANDAR,2.90477800,101.68103000
12002810,PPJ34,DATARAN GEMILANG,2.90340400,101.68117600
12002812,PPJ38,KEMENTERIAN PEMBANGUNAN LUAR BANDAR (OPP),2.90496200,101.68046600
12002813,PPJ39,MOTOCROSS CIRCUIT,2.90997600,101.68216000
12002814,PPJ40,GALERIA PJH,2.91204700,101.68270000
12002815,PPJ41,KEMENTERIAN PERTANIAN,2.91479800,101.68386000
12002816,PPJ42,PERBADANAN PUTRAJAYA (SELATAN),2.91667300,101.68460000
12002817,PPJ43,PERBADANAN PUTRAJAYA (UTARA),2.91847500,101.68519000
12002818,PPJ44,JABATAN PENDAFTARAN NEGARA,2.92039300,101.68586000
12002819,PPJ45,LEMBAGA PEMBIAYAAN PERUMAHAN (UTARA),2.92294400,101.68669000
12002820,PPJ46,PERBENDAHARAAN 2 (UTARA),2.92497200,101.68739000
12002821,PPJ47,MENARA PERKESO,2.92724900,101.68817000
12002823,KL2199,MRT CHAN SOW LIN PINTU A,3.12842000,101.71634200
12002824,KL2206,PERINDUSTRIAN CHAN SOW LIN (TENGAH),3.12310400,101.71281100
12002825,KL809,PERCETAKAN NASIONAL,3.12505700,101.71413700
12002826,KL2207,LRT CHAN SOW LIN,3.12882600,101.71598700
12002827,KL2202,KAWASAN PERINDUSTRIAN CHAN SOW LIN,3.12034300,101.71097500
12002828,KL805,PERINDUSTRIAN CHAN SOW LIN (UTARA),3.11892300,101.70998300
12002829,KL811,KAWASAN PERINDUSTRIAN SALAK SELATAN,3.11212900,101.70698300
12002830,KL1789,RAZAK MANSION (OPP),3.10612200,101.70699600
12002831,KL1815,KAWASAN PERINDUSTRIAN SALAK SELATAN,3.11204000,101.70667700
12002832,KL807,PERINDUSTRIAN CHAN SOW LIN (SELATAN),3.11868800,101.70968900
12002833,KL2205,KAWASAN PERINDUSTRIAN CHAN SOW LIN,3.12034100,101.71082200
12002834,SJ884,MRT PUTRA PERMAI PINTU A,2.98336900,101.66135100
12002835,PPJ67,KOMPLEKS SEKOLAH PUTRAJAYA PRESINT 8,2.93833700,101.68514800
12002836,PPJ57,MENARA PERKESO (BARAT),2.92759400,101.68687400
12002837,KL783,MRT SUNGAI BESI PINTU A,3.06369670,101.70859840
12002840,KL2201,PERINDUSTRIAN CHAN SOW LIN (TENGAH),3.12243500,101.71248200
12002841,PPJ115,PERUMAHAN PRESINT 11A (BARAT),2.95995200,101.67961300
12002842,SJ883,PUSAT BANDAR PUTRA PERMAI (OPP),2.98685800,101.66416200
12002844,SP414B,MRT CYBERJAYA CITY CENTRE,2.94091280,101.66482340
12002845,SP399B,MKN EMBASSY TECHZONE (OPP),2.93669260,101.65610990
12002847,SP380B,GEM IN MALL,2.92166170,101.63509350
12002848,SP78B,CYBERIA SMART HOMES (OPP),2.92233090,101.64077980
12002849,SP410B,RADIUS,2.93520760,101.65581610
12002850,SP30B,MKN EMBASSY TECHZONE,2.93773400,101.65528110
12002851,SP56B,MAGIC CENTRE,2.90985060,101.65579870
12002852,SP27B,GLOMAC CYBERJAYA (TIMUR),2.92590000,101.65701520
12002853,SP420,(M1) SETIA SAFIRO,2.90125100,101.63609100
12002854,SP30C,MKN EMBASSY TECHZONE,2.93768050,101.65531600
12002855,SP30,MKN EMBASSY TECHZONE,2.93773400,101.65533200
12002856,SP432B,DXN CYBERVILLE (OPP),2.94064900,101.65586780
12002857,SP32B,LIMKOKWING UNIVERSITY (OPP),2.94007100,101.66036300
12002859,SP73B,QUILL 3,2.92201600,101.65419820
12002860,SP75B,CYBERJAYA TRANSPORT TERMINAL,2.92119160,101.65078780
12002872,KL1892,(M1) MATRADE (BARAT),3.17762800,101.66734800
12002873,KJ697,JEJANTAS KG BARU BALAKONG,3.02620170,101.74916000
12002874,KJ740,TAMAN BUKIT BELIMBING (OPP),3.02476740,101.73372000
12002875,SJ107,KLINIK KERAJAAN SERI KEMBANGAN,3.02785000,101.71126000
12002877,SJ175,KLINIK KESIHATAN/TAMAN MUHIBBAH,3.02825550,101.71142600
12002878,SJ599,TAMAN SG BESI INDAH (SELATAN),3.02702800,101.72276000
12002879,KJ670,WISMA TANJUNG BALAI (OPP),3.02493400,101.73004000
12002880,KJ671,TAMAN BUKIT BELIMBING,3.02459220,101.73224000
12002881,SJ603,PUCHONG UTAMA 1 (PRESINT10),3.00192800,101.61152000
12002882,SJ623,FLAT PUCHONG INDAH,3.00997950,101.61027000
12002883,SJ302,(M2) MASJID PUCHONG PERDANA (OPP),3.00916100,101.60827000
12002884,SJ267,LRT PUCHONG PERDANA,3.00770700,101.60560000
12002885,DUMMY3,VISTA MILLENNIUM,3.00231400,101.60320000
12002886,DUMMY4,PERUMAHAN TASIK PRIMA 3,2.99288300,101.60705600
12002887,DUMMY5,LAKEVIEW HOMES,2.99068400,101.60686500
12002888,DUMMY6,LAKEHAVEN HOMES,2.98573700,101.60570500
12002889,DUMMY7,(M1) PANGSAPURI SERI PELANGI,2.98311200,101.60514000
12002890,DUMMY8,PUCHONG UTAMA COURT 2,2.98309500,101.60774000
12002891,SJ252,TAMAN PUCHONG UTAMA COURT 2,2.98368700,101.60938000
12002892,SJ255,TAMAN PUCHONG UTAMA 10 (BARAT),2.98582500,101.61019000
12002893,SJ256,SK PUCHONG UTAMA 1,2.98830200,101.61142000
12002894,SJ259,TAMAN PUCHONG UTAMA 12,2.99041200,101.61252000
12002895,SJ237,(M3) TERMINAL PUCHONG UTAMA,2.99044600,101.61555500
12002896,KL2550,CENTRAL RESIDENCES,3.08246000,101.69937000
12002897,KL784,PANGSAPURI PERMAI,3.06220200,101.70676400
12002898,KL781,MRT/LRT SUNGAI BESI,3.06357200,101.70729000
12002900,KJ970,IVORY RESIDENCE,3.01219900,101.81285000
12002901,KJ977,AKOYA RESIDENCE,3.01246600,101.81556000
12002902,KJ971,(M1) OASIS RESIDENCE,3.01290500,101.81631000
12002903,KJ972,AMEERA RESIDENCE,3.01216300,101.81457500
12002904,KJ973,IVORY RESIDENCE (OPP),3.01219700,101.81310000
12002905,KL414,FLAT BUKIT CHERAS,3.07284800,101.74941800
12002906,KJ819,SIMPANG KEMACAHAYA 1,3.07529200,101.78129200
12002907,PJ791,TAMAN INDUSTRI SG BULOH (TIMUR),3.16624700,101.56960600
12002908,KL2478,SRA AL-QURTUBI (OPP),3.19485500,101.65954600
12002909,SL100,SELAYANG MALL,3.23659700,101.64409000
12002910,SL513,TAMAN SELAYANG JAYA,3.23637200,101.64519500
12002911,SL514,TAMAN SELAYANG JAYA (BARAT),3.23661700,101.64690000
12002912,SL98,SK SELAYANG JAYA,3.23662500,101.64838400
12002913,SL92,TAMAN SELAYANG JAYA (TIMUR),3.23800800,101.65237400
12002914,SL93,TAMAN SERI MELATI,3.24060800,101.65682000
12002915,KL420,DEWAN DESA BAKTI (OPP),3.24082200,101.65860000
12002916,KL696,FLAT TAMAN WILAYAH SELAYANG,3.23926500,101.66119000
12002917,KL697,MASJID AL-ZAKIRIN (OPP),3.23777800,101.66022500
12002918,KL698,PANGSAPURI TAMAN SRI MURNI (SELATAN),3.23510300,101.66151000
12002919,KL699,PANGSAPURI TAMAN SRI MURNI (TIMUR),3.23616900,101.66280000
12002920,DUMMY9,(M1) 99 WONDERLAND PARK,3.23638600,101.66456000
12002921,DUMMY10,PASAR BORONG KL,3.23766300,101.66720600
12002922,DUMMY11,LAKEPARK RESIDENCE,3.23978200,101.66344500
12002923,KL700,PANGSAPURI TAMAN SRI MURNI,3.23557600,101.66299400
12002924,KL701,PANGSAPURI TAMAN SRI MURNI (SELATAN),3.23494800,101.66134000
12002925,KL702,MASJID AL-ZAKIRIN,3.23773700,101.66005000
12002926,KL703,FLAT TAMAN WILAYAH SELAYANG,3.23930200,101.66106000
12002927,KL704,DEWAN DESA BAKTI,3.24093600,101.65850000
12002928,SL95,TAMAN SERI MELATI,3.24129400,101.65802000
12002929,SL96,TAMAN SELAYANG JAYA (TIMUR),3.23795300,101.65257000
12002930,SL97,SK SELAYANG JAYA (OPP),3.23648500,101.64831500
12002931,SL510,TAMAN SELAYANG JAYA,3.23661300,101.64704000
12002932,SL511,SELAYANG MALL (OPP),3.23637400,101.64459000
12002933,DUMMY12,SELAYANG MALL SMART STOP (OPP),3.23653500,101.64377000
12002935,KL2546,WISMA KEBUDAYAAN SGM,3.14722600,101.72017500
12002936,KL268,DORSETT RESIDENCE KL,3.14729900,101.71616400
12002937,KL475,MRT SRI DELIMA PINTU C,3.20647700,101.66646600
12002938,DUMMY13,LAKEVILLE RESIDENCE,3.20943800,101.66926600
12002939,DUMMY14,LAKECITY GALLERY,3.21353500,101.66968500
12002940,DUMMY15,PPR TAMAN WAHYU,3.22024900,101.67014000
12002941,DUMMY16,SRI UTARA KIPARK,3.22360500,101.67036400
12002942,DUMMY17,(M1) 99 RESIDENCE,3.22709200,101.67061600
12002943,DUMMY18,LOTUS SELAYANG,3.22188400,101.67049000
12002944,DUMMY19,ECOSKY RESIDENCE,3.21931500,101.67020000
12002945,DUMMY20,BARON RESIDENCE (OPP),3.21566700,101.66997500
12002946,DUMMY21,ARADIA RESIDENCE (OPP),3.21418500,101.66991400
12002947,DUMMY22,KOMERSIAL TAMAN WAHYU,3.21127500,101.66960000
12002948,DUMMY23,PERUMAHAN SIBU,3.20937600,101.66941000
12002949,SL643,SK BUKIT RAHMAN PUTRA,3.22800400,101.55235000
12002950,SL644,PINGGIRAN RAHMAN PUTRA,3.23216300,101.54773000
12002951,SL645,TAMAN MASGENUINE,3.23519700,101.54268000
12002952,SL332,SURAU KG SETIA KUANG,3.24017900,101.53520000
12002953,SL333,(M2) TAMAN TASIK BIRU,3.24834600,101.52943000
12002954,SL334,KG MELAYU KUNDANG,3.25387300,101.52562000
12002955,SL335,DEWAN KG MELAYU KUNDANG,3.25532400,101.52515000
12002956,SL320,SK SERI KUNDANG,3.25779200,101.52100000
12002957,SL321,TAMAN RAHMAT JAYA KUNDANG,3.26161500,101.51914000
12002958,SL322,KUNDANG LAKES COUNTRY CLUB,3.26306100,101.51774000
12002959,SL646,SURAU KG BARU KUNDANG,3.27302100,101.51433600
12002960,SL402,PASAR KG BARU KUNDANG,3.27946600,101.51456500
12002961,DUMMY28,PERUMAHAN KUNDANG JAYA,3.28124500,101.52702000
12002962,DUMMY29,AZALEA HOMES KUNDANG JAYA,3.28113400,101.53210000
12002964,DUMMY31,(M1) FUNPARK GAMUDA LUGE,3.27537500,101.55269000
12002965,DUMMY32,PANGSAPURI PKNS KUANG,3.26200700,101.54992000
12002966,DUMMY33,TAMAN KUANG RAYA,3.26087300,101.55038500
12002967,DUMMY34,DEWAN SERBAGUNA KUANG (OPP),3.25581900,101.55082000
12002968,DUMMY35,KG BATU 20 KUANG,3.25356200,101.54996000
12002969,DUMMY36,KAMPUNG GOMBAK,3.25069300,101.54748500
12002970,DUMMY37,KAMPUNG GOMBAK BATU 19,3.24684800,101.54536400
12002971,DUMMY38,KAMPUNG GOMBAK KUANG,3.24487600,101.54296000
12002972,DUMMY39,SRA KUANG (OPP),3.24388500,101.54194000
12002973,DUMMY40,(M3) KOMERSIAL MASGENUINE SQUARE,3.23645100,101.54073000
12002974,DUMMY41,PINGGIRAN RAHMAN PUTRA,3.23242300,101.54767000
12002975,DUMMY42,SK BUKIT RAHMAN PUTRA (OPP),3.22819300,101.55294000
12002976,DUMMY43,KOMERSIAL BRP 7,3.22940900,101.55846400
12002977,DUMMY44,MMU,2.92495600,101.64202300
12002978,DUMMY45,MALAKAT MALL,2.92576500,101.64934100
12002979,PPJ35,KEMENTERIAN WANITA & MASYARAKAT,2.90248400,101.68016900
12002980,PPJ5,PRESINT 5 (BARAT),2.89559200,101.67320800
12002981,DUMMY46,(M1) HERIOT-WATT UNIVERSITY,2.89866900,101.67283900
12002982,PPJ327,PRESINT 5 (BARAT),2.89602400,101.67340100
12002983,SP435,SEJATI LAKESIDE (OPP),2.90618200,101.63507500
12002984,SP434,SEJATI LAKESIDE,2.90642290,101.63493120
12002985,PJ847,MRT DAMANSARA DAMAI PINTU B,3.19988770,101.59323730
12002986,SA630,TAMAN SERI BULOH,3.20337400,101.54593500
12002987,SA610,(M2) KOLEJ VOKASIONAL SG BULOH (OPP),3.20481700,101.54358900
12002988,SA628,TAMAN PAYA JARAS PERMAI,3.20674100,101.54068400
12002989,SA612,KG SG PELONG (SELATAN),3.20869800,101.53800300
12002990,SA614,PERUMAHAN AWAM LADANG BARU,3.22089400,101.52591600
12002991,SA613,KG SG PELONG (BARAT),3.21612700,101.53010400
12002992,DUMMY47,PERUMAHAN AMAN PUTRI,3.21784500,101.52243600
12002993,SA615,KG MERBAU SEMPAK,3.21880900,101.51466700
12002994,SA616,KG MERBAU SEMPAK TAMBAHAN,3.22062600,101.50488600
12002995,SA617,SJKT BUKIT DARAH (OPP),3.21975500,101.50378100
12002996,SA618,PANGSAPURI MELAWATI U17,3.22217900,101.49943100
12002997,SA940,DESA COALFIELDS,3.22826200,101.49394400
12002998,SA619,PENJARA SG BULOH (OPP),3.22971900,101.49296400
12002999,DUMMY48,PERUMAHAN DESA COALFIELDS 1,3.23194700,101.49180600
12003000,DUMMY49,KIPMALL DESA COALFIELDS,3.23636700,101.48944200
12003001,KS40,TAMAN DESA COALFIELDS,3.23778400,101.48564800
12003002,KS41,BANDAR SERI COALFIELDS (SELATAN),3.23860100,101.48376700
12003003,KS42,MASJID AT-TAUFIQIAH,3.24817400,101.47160100
12003004,KS310,PERINDUSTRIAN BATU 22 (UTARA),3.27298300,101.45397100
12003005,KS51,IJOK (TIMUR),3.29576400,101.44029800
12003006,DUMMY50,PERUMAHAN KOTA PUTERI 8,3.30588500,101.43269100
12003007,DUMMY51,PERUMAHAN KOTA PUTERI 2 (OPP),3.30934700,101.43555500
12003008,DUMMY52,PERUMAHAN KOTA PUTERI 3,3.31151300,101.43774500
12003009,DUMMY53,PERINDUSTRIAN EXSIM KOTA PUTERI,3.30766600,101.44557200
12003010,DUMMY54,IDAMAN PKNS KOTA PUTERI 1 (OPP),3.30721300,101.45301600
12003011,DUMMY55,VILLA DAMAI,3.31044500,101.45828200
12003012,SL190,SPG TASIK PUTERI,3.30466100,101.47286200
12003013,DUMMY56,PANGSAPURI AZALEA,3.29240800,101.47229600
12003014,SL187,(M1) PINEWOOD COURT,3.28649400,101.46964400
12003015,DUMMY57,OAKWOOD COURT APARTMENT,3.28392800,101.46848800
12003016,DUMMY58,KOMERSIAL LEMBAH HIJAU,3.28153200,101.46593100
12003017,DUMMY59,ROSEWOOD COURT APARTMENT,3.28338300,101.46449800
12003018,DUMMY60,PERUMAHAN BLOK 26/27A,3.28845700,101.46726800
12003019,DUMMY61,PANGSAPURI AZALEA (OPP),3.29207100,101.47175700
12003020,DUMMY62,SIMPANG TASIK PUTERI,3.30497600,101.47278800
12003021,DUMMY63,VILLA DAMAI (OPP),3.31015400,101.45878100
12003022,DUMMY64,IDAMAN PKNS KOTA PUTERI 1,3.30718400,101.45190300
12003023,DUMMY65,PERUMAHAN KOTA PUTERI 5,3.30762800,101.44593100
12003024,DUMMY66,PERUMAHAN KOTA PUTERI 3 (OPP),3.31128800,101.43768500
12003025,DUMMY67,PERUMAHAN KOTA PUTERI 2,3.30950200,101.43599200
12003026,DUMMY68,PERUMAHAN KOTA PUTERI 8 (OPP),3.30549800,101.43273900
12003027,DUMMY69,PERINDUSTRIAN BATU 22,3.27402900,101.45432800
12003028,KS155,PERUMAHAN BANDAR SERI COALFIELDS,3.24915700,101.47148300
12003029,KS38,KOMERSIAL SERI COALFIELDS,3.24616900,101.47283400
12003030,KS43,BANDAR SERI COALFIELDS (SELATAN),3.23899800,101.48357700
12003031,KS39,TAMAN DESA COALFIELDS,3.23810700,101.48558400
12003032,DUMMY70,KIPMALL DESA COALFIELDS (OPP),3.23635600,101.48996500
12003033,SA620,PENJARA SG BULOH,3.23012100,101.49303400
12003034,SA939,DESA COALFIELDS,3.22863600,101.49403200
12003035,SA621,PANGSAPURI MELAWATI U17,3.22255100,101.49942700
12003036,SA623,SJKT BUKIT DARAH,3.21995400,101.50354600
12003037,SA622,KG MERBAU SEMPAK TAMBAHAN,3.22072900,101.50479200
12003038,SA625,PERUMAHAN AWAM LADANG BARU,3.22106800,101.52626300
12003039,SA626,KG SG PELONG (BARAT),3.21605400,101.53107900
12003040,SA611,(M3) TAMAN PAYA JARAS PERMAI,3.20729400,101.54033600
12003041,SA629,KOLEJ VOKASIONAL SG BULOH,3.20486400,101.54401400
12003042,PJ235,PERUMAHAN SEKSYEN 16,3.12363800,101.64022800
12003043,KL799,MRT TAMAN MIDAH PINTU A,3.10553190,101.73159130
12003044,KL2421,MRT TAMAN MIDAH PINTU B,3.10435120,101.73296540
12003046,DUMMY71,KOMPLEKS TM CYBERJAYA,2.93176800,101.65700200
12003047,DUMMY72,KOMPLEKS TM CYBERJAYA,2.93178410,101.65697520
12003048,KL1846,TAMAN INTAN BAIDURI (BARAT),3.23365300,101.64729800
12003049,KL1851,FLAT TAMAN INTAN BAIDURI,3.23321200,101.65057100
12003050,KL1852,SMK ST MARY KL,3.23066300,101.64900500
12003051,KL1853,PADANG TAMAN INTAN BAIDURI,3.23158600,101.64762200
12003052,KJ705,SYMPHONY TOWER,3.02662800,101.75232600
12003053,SP398,MRT CYBERJAYA UTARA,2.95075740,101.65680660
12003054,SP398B,MRT CYBERJAYA UTARA,2.95035840,101.65692160
12003055,KL402,PETRONAS ALAM DAMAI (OPP),3.07453100,101.73860600
12003056,KL413,PRIMA ALAM DAMAI,3.07407300,101.74457800
12003060,SJ602,BANDAR BUKIT PUCHONG BP1,2.98609600,101.63072200
12003061,SA673,U5 (BARAT),3.14526800,101.54458500
12003062,SA904,SUBANG SKYPARK TERMINAL (OPP),3.13347600,101.55436900
12003063,SA901,SUBANG AIRPORT,3.13115200,101.55524500
12003064,SA603,U5 (BARAT),3.14608800,101.54361100
12003065,SJ1,MRT SERDANG RAYA UTARA PINTU A,3.04147500,101.70491370
12003067,SA1020,MRT KWASA SENTRAL PINTU A,3.16956290,101.56427850
12003068,KL2555,(M1) STESEN KTM SEGAMBUT,3.18706000,101.66519000
12003070,SJ786,MRT SERDANG JAYA PINTU A,3.02118100,101.70914560
12003071,SJ203,MRT TAMAN EQUINE PINTU A,2.98914120,101.67239930
12003074,KJ644,WINNIE PLAZA,2.99071100,101.78038000
12003075,DUMMY77,KOMERSIAL TAMAN MAJLIS JAYA,2.98978600,101.77664000
12003076,DUMMY78,PANGSAPURI TAMAN TASIK SG CHUA (OPP),2.99376200,101.77256000
12003077,DUMMY79,PERINDUSTRIAN KG BUKIT ANGKAT,2.99709700,101.77002000
12003078,DUMMY80,PANGSAPURI SETIA IMPIAN,2.99178200,101.76292400
12003079,DUMMY81,(M1) JADITE SUITES,2.99437800,101.76008600
12003080,DUMMY82,JADE SQUARE (OPP),2.99175200,101.76055000
12003081,DUMMY83,EATON INTERNATIONAL SCHOOL,2.99321900,101.75247000
12003082,DUMMY84,PANGSAPURI GAPURA BAYU,2.99405400,101.74991600
12003083,DUMMY85,JADE SQUARE 2,2.99838900,101.74921000
12003084,DUMMY86,JADE SQUARE,2.99204700,101.76051000
12003086,DUMMY87,SETIA IMPIAN RESIDENCES,2.99198700,101.76329000
12003087,DUMMY88,PERINDUSTRIAN KG BUKIT ANGKAT,2.99710500,101.76929500
12003088,DUMMY89,PERUSAHAAN KG BUKIT ANGKAT,2.99630700,101.77219000
12003089,DUMMY90,PANGSAPURI TAMAN TASIK SG CHUA,2.99408900,101.77267000
12003090,DUMMY91,KOMERSIAL TAMAN MAJLIS JAYA,2.99006400,101.77682500
12003091,KJ172,WINNIE PLAZA (OPP),2.99082500,101.78033000
12003093,KL2359,MRT TUN RAZAK EXCHANGE PINTU B,3.14259100,101.72002500
12003094,PPJ254,MRT PUTRAJAYA SENTRAL,2.93293190,101.67194800
12003095,KJ37,MRT TAMAN SUNTEX PINTU A,3.07199010,101.76323940
12003098,SP436,ASPIRE RESIDENCE,2.89648600,101.63680000
12003099,KL2221,TAMAN SRI BAHTERA. SPG JLN SEMERAH PADI,3.10725600,101.74006000
12003100,KL2218,TAMAN SRI BAHTERA. SPG LORONG BUKIT A8 (OPP),3.10699800,101.73995000
12003101,KL2551,8TH & STELLAR,3.07211700,101.70131100
12003102,KJ818,MRT SRI RAYA PINTU A,3.06195950,101.77323730
12003103,SA1072,(M1) ASCOTT HILL (OPP),3.21711500,101.55556270
12003104,KL2556,IMPIANA SKY RESIDENSI (OPP),3.04527300,101.67213400
12003105,KL2016,PANGSAPURI LTAT,3.04870500,101.66428000
12003106,KL2557,CONDOMINIUM AKASIA BUKIT JALIL,3.05052100,101.66260500
12003107,KL2558,RESIDENSI BUKIT JALIL,3.05217300,101.66006500
12003108,KL2559,RESIDENSI AMAN BUKIT JALIL,3.04901800,101.66054500
12003109,KL2560,RESIDENSI BINTANG BUKIT JALIL,3.04686400,101.66029000
12003110,KL2561,PARAGON HEIGHTS (OPP),3.04572300,101.65924000
12003111,KL2012,PPR PINGGIRAN BUKIT JALIL,3.04787700,101.65382400
12003112,KL2014,APARTMENT SERI CERIA,3.04990900,101.65428000
12003113,KL2015,(M1) PPR PINGGIRAN BUKIT JALIL,3.04783100,101.65397000
12003114,KL2562,PARAGON HEIGHTS,3.04601800,101.65878000
12003115,KL2563,LTAT PPAM PAHLAWAN,3.04573700,101.66495500
12003116,KL2564,IMPIANA SKY RESIDENSI,3.04550300,101.67130000
12003117,KJ978,KOMERSIAL BUKIT BELIMBING (BARAT),3.02945200,101.73313000
12003118,KJ392,TAMAN BUKIT BELIMBING (UTARA),3.03526900,101.73241000
12003119,KJ979,PANGSAPURI JUARA SURIA,3.03943500,101.73253000
12003120,KJ980,CLOUDTREE RESIDENCE,3.04258100,101.73252000
12003121,KJ981,PERUMAHAN JUARA JAYA,3.03967400,101.73273500
12003122,KJ410,PERUMAHAN BUKIT BELIMBING,3.03498500,101.73268000
12003123,KJ982,KOMERSIAL BUKIT BELIMBING (TIMUR),3.02983800,101.73330000
12003124,SJ891,FAKULTI BIOTEKNOLOGI,3.00429600,101.70612000
12003125,KJ983,DE CENTRUM MALL/IUKL,2.98017200,101.73850000
12003126,KJ984,UNITEN,2.97929300,101.73543500
12003127,DUMMY92,PERUMAHAN TAMAN AWANA CHERAS,3.08938700,101.76319000
12003128,SA1056,PERUMAHAN BRP 5,3.21705370,101.55972310
12003134,PJ875,D'VINE RESIDENCES,3.17157200,101.61716500
12003135,KL2554,ARTE MONT KIARA,3.17555200,101.66508500
12003136,KL1036,STADIUM HOKI TUN RAZAK,3.16931800,101.67150000
12003137,KL2552,PUNCAK PRIMA CONDOMINIUM,3.16400100,101.65969000
12003138,KL2553,KAMI RESIDENCES MONT KIARA,3.17344400,101.66231000
12003143,PJ818,SMK DAMANSARA JAYA (OPP),3.13166100,101.61692400
12003144,KL1889,SOLARIS MONT KIARA,3.17374200,101.65944400
